City_ID,City,Country,Date,Lat,Lng,Max Temp,Humidity,Cloudiness,Wind Speed
0,Petatlan,MX,2021-07-22 23:59:37,17.5167,-101.2667,302.54,71,71,1.03
1,Vaini,TO,2021-07-22 23:51:36,-21.2,-175.2,300.24,78,20,3.09
2,Cap Malheureux,MU,2021-07-22 23:57:43,-19.9842,57.6142,294.42,68,46,1.34
3,Mataura,NZ,2021-07-22 23:54:34,-46.1927,168.8643,281.19,81,12,1.36
4,Punta Arenas,CL,2021-07-22 23:59:38,-53.15,-70.9167,276.21,81,40,2.57
5,Thompson,CA,2021-07-22 23:55:19,55.7435,-97.8558,300.24,54,40,4.12
6,Morgan City,US,2021-07-22 23:59:38,29.6994,-91.2068,304.82,76,23,3.21
7,Hithadhoo,MV,2021-07-22 23:59:38,-0.6,73.0833,299.63,81,100,4.48
8,Rikitea,PF,2021-07-22 23:59:39,-23.1203,-134.9692,296.08,73,10,8.25
9,Khatanga,RU,2021-07-22 23:51:17,71.9667,102.5,290.09,64,79,4.63
10,Meulaboh,ID,2021-07-22 23:52:51,4.1363,96.1285,297.77,89,98,1.61
11,Ribeira Brava,PT,2021-07-22 23:59:39,32.65,-17.0667,296.5,81,16,1.94
12,Arraial Do Cabo,BR,2021-07-22 23:56:24,-22.9661,-42.0278,290.13,94,20,2.06
13,Saskylakh,RU,2021-07-22 23:55:07,71.9167,114.0833,291.06,70,56,2.9
14,Los Llanos De Aridane,ES,2021-07-22 23:59:39,28.6585,-17.9182,294.01,85,0,10.29
15,New Norfolk,AU,2021-07-22 23:55:15,-42.7826,147.0587,285.31,65,65,0.89
16,Clyde River,CA,2021-07-22 23:59:40,70.4692,-68.5914,276.28,100,90,3.6
17,Avarua,CK,2021-07-22 23:52:03,-21.2078,-159.775,300.18,74,75,5.66
18,Chokurdakh,RU,2021-07-22 23:54:26,70.6333,147.9167,284.06,50,1,3.9
19,Coquimbo,CL,2021-07-22 23:55:53,-29.9533,-71.3436,284.0,87,90,1.03
20,Rawson,AR,2021-07-22 23:56:47,-43.3002,-65.1023,286.12,39,100,4.45
21,Puerto Ayora,EC,2021-07-22 23:54:43,-0.7393,-90.3518,295.68,88,96,4.02
22,Trairi,BR,2021-07-22 23:55:09,-3.2778,-39.2689,299.53,79,6,6.9
23,Lompoc,US,2021-07-22 23:54:57,34.6391,-120.4579,301.8,74,75,7.2
24,Laguna,US,2021-07-22 23:59:40,38.421,-121.4238,312.84,21,1,1.79
25,Port Alfred,ZA,2021-07-22 23:54:56,-33.5906,26.891,283.98,72,96,8.95
26,Tual,ID,2021-07-22 23:55:25,-5.6667,132.75,298.9,85,99,5.77
27,Saint-Philippe,RE,2021-07-22 23:55:14,-21.3585,55.7679,291.92,76,43,5.89
28,Bluff,NZ,2021-07-22 23:55:14,-46.6,168.3333,281.37,68,25,5.1
29,Nelson Bay,AU,2021-07-22 23:59:41,-32.7167,152.15,289.88,68,98,0.45
30,Hilo,US,2021-07-22 23:50:20,19.7297,-155.09,303.86,80,75,7.2
31,Aklavik,CA,2021-07-22 23:56:16,68.2191,-135.0107,286.61,88,90,7.72
32,Mayo,US,2021-07-22 23:56:15,38.8876,-76.5119,300.8,60,46,2.52
33,Faanui,PF,2021-07-22 23:51:30,-16.4833,-151.75,298.72,68,36,6.92
34,Mataura,NZ,2021-07-22 23:54:34,-46.1927,168.8643,281.19,81,12,1.36
35,Ancud,CL,2021-07-22 23:57:07,-41.8697,-73.8203,281.89,93,100,3.24
36,Novosokolniki,RU,2021-07-22 23:59:41,56.3463,30.1578,286.79,79,16,3.8
37,Russell,US,2021-07-22 23:55:14,32.3502,-85.1999,304.72,78,90,3.09
38,Pevek,RU,2021-07-22 23:55:05,69.7008,170.3133,278.4,71,56,2.65
39,Port Lincoln,AU,2021-07-22 23:55:12,-34.7333,135.8667,286.08,76,49,4.49
40,Souillac,MU,2021-07-22 23:57:15,-20.5167,57.5167,294.36,73,40,5.14
41,Hermanus,ZA,2021-07-22 23:54:45,-34.4187,19.2345,279.76,78,29,4.68
42,Yumen,CN,2021-07-22 23:55:31,40.2833,97.2,300.06,34,13,5.12
43,Dingle,PH,2021-07-22 23:54:36,10.9995,122.6711,300.57,80,100,7.83
44,Ribeira Grande,PT,2021-07-22 23:56:10,38.5167,-28.7,292.37,77,20,3.09
45,Tigil,RU,2021-07-22 23:59:42,57.8,158.6667,291.31,68,97,5.33
46,Rikitea,PF,2021-07-22 23:54:48,-23.1203,-134.9692,296.08,73,10,8.25
47,Namibe,AO,2021-07-22 23:59:42,-15.1961,12.1522,291.62,76,1,1.38
48,Cape Town,ZA,2021-07-22 23:56:15,-33.9258,18.4232,282.1,82,0,1.34
49,Kavaratti,IN,2021-07-22 23:59:42,10.5669,72.642,300.61,80,100,11.51
50,Klaksvik,FO,2021-07-22 23:57:28,62.2266,-6.589,282.66,91,81,4.44
51,Anadyr,RU,2021-07-22 23:59:43,64.75,177.4833,286.43,71,0,5.0
52,Matamba,TZ,2021-07-22 23:59:43,-8.9833,33.9667,282.37,87,10,2.61
53,Leningradskiy,RU,2021-07-22 23:55:37,69.3833,178.4167,277.7,82,84,5.05
54,Puerto Ayora,EC,2021-07-22 23:54:43,-0.7393,-90.3518,295.68,88,96,4.02
55,Klaksvik,FO,2021-07-22 23:57:28,62.2266,-6.589,282.66,91,81,4.44
56,Adrar,MR,2021-07-22 23:56:03,20.5022,-10.0711,305.42,14,11,4.37
57,Atuona,PF,2021-07-22 23:54:40,-9.8,-139.0333,298.38,73,90,3.85
58,Kodiak,US,2021-07-22 23:54:32,57.79,-152.4072,284.51,98,100,6.81
59,Yamada,JP,2021-07-22 23:59:43,39.4667,141.95,299.04,82,71,2.85
60,Punta Arenas,CL,2021-07-22 23:55:12,-53.15,-70.9167,276.21,81,40,2.57
61,Te Anau,NZ,2021-07-22 23:55:24,-45.4167,167.7167,280.72,77,32,0.55
62,Port Alfred,ZA,2021-07-22 23:54:56,-33.5906,26.891,283.98,72,96,8.95
63,Albany,US,2021-07-22 23:53:33,42.6001,-73.9662,296.08,59,99,4.89
64,Hilo,US,2021-07-22 23:50:20,19.7297,-155.09,303.86,80,75,7.2
65,Bataipora,BR,2021-07-22 23:59:44,-22.2953,-53.2711,290.58,29,0,2.28
66,Kodiak,US,2021-07-22 23:54:32,57.79,-152.4072,284.51,98,100,6.81
67,San Patricio,US,2021-07-22 23:56:05,28.017,-97.5169,304.2,61,48,6.38
68,Punta Arenas,CL,2021-07-22 23:55:12,-53.15,-70.9167,276.21,81,40,2.57
69,Malindi,KE,2021-07-22 23:59:44,-3.2175,40.1191,297.52,80,14,7.67
70,Vaini,TO,2021-07-22 23:51:36,-21.2,-175.2,300.24,78,20,3.09
71,Ponta Do Sol,PT,2021-07-22 23:56:28,32.6667,-17.1,296.5,79,23,2.67
72,Lebu,CL,2021-07-22 23:55:06,-37.6167,-73.65,283.12,88,100,2.88
73,San Cristobal,VE,2021-07-22 23:59:45,7.7669,-72.225,296.25,98,95,1.83
74,Ribeira Grande,PT,2021-07-22 23:56:10,38.5167,-28.7,292.37,77,20,3.09
75,Concepcion,CL,2021-07-22 23:56:05,-36.827,-73.0498,283.04,93,100,1.54
76,Faanui,PF,2021-07-22 23:51:30,-16.4833,-151.75,298.72,68,36,6.92
77,Busselton,AU,2021-07-22 23:51:29,-33.65,115.3333,285.42,77,100,11.75
78,Longyearbyen,SJ,2021-07-22 23:51:34,78.2186,15.6401,278.75,81,43,1.48
79,Saint-Philippe,RE,2021-07-22 23:55:14,-21.3585,55.7679,291.92,76,43,5.89
80,Schwandorf,DE,2021-07-22 23:59:45,49.3262,12.1093,290.33,92,17,0.58
81,Mar Del Plata,AR,2021-07-22 23:55:00,-38.0023,-57.5575,287.09,76,0,1.34
82,Atuona,PF,2021-07-22 23:54:40,-9.8,-139.0333,298.38,73,90,3.85
83,Saint George,US,2021-07-22 23:54:45,37.1041,-113.5841,307.83,38,1,2.68
84,Longyearbyen,SJ,2021-07-22 23:51:34,78.2186,15.6401,278.75,81,43,1.48
85,Synya,RU,2021-07-22 23:59:46,65.3718,58.0387,280.28,65,11,2.3
86,Vaini,TO,2021-07-22 23:51:36,-21.2,-175.2,300.24,78,20,3.09
87,Bilma,NE,2021-07-22 23:59:46,18.6853,12.9164,301.69,53,67,6.47
88,Hithadhoo,MV,2021-07-22 23:56:09,-0.6,73.0833,299.63,81,100,4.48
89,Rikitea,PF,2021-07-22 23:54:48,-23.1203,-134.9692,296.08,73,10,8.25
90,Moa,CU,2021-07-22 23:59:46,20.6569,-74.9403,299.85,83,24,4.02
91,Sioux Lookout,CA,2021-07-22 23:56:21,50.1001,-91.917,299.19,61,40,4.12
92,Lebu,CL,2021-07-22 23:55:06,-37.6167,-73.65,283.12,88,100,2.88
93,Hami,CN,2021-07-22 23:55:47,42.8,93.45,305.88,26,97,9.74
94,Atuona,PF,2021-07-22 23:54:40,-9.8,-139.0333,298.38,73,90,3.85
95,Haines Junction,CA,2021-07-22 23:57:42,60.7522,-137.5108,293.12,40,41,4.63
96,Nara,JP,2021-07-22 23:59:47,34.6851,135.8049,304.4,94,52,1.72
97,Wyoming,US,2021-07-22 23:59:47,43.0002,-107.5009,304.17,21,66,8.58
98,Berbera,SO,2021-07-22 23:59:47,10.4396,45.0143,303.74,64,90,5.89
99,Khasan,RU,2021-07-22 23:59:48,42.4308,130.6434,300.56,76,89,1.04
100,Severo-Kurilsk,RU,2021-07-22 23:54:53,50.6789,156.125,286.38,84,61,1.29
101,Esperance,AU,2021-07-22 23:54:53,-33.8667,121.9,284.06,65,37,9.56
102,Cayenne,GF,2021-07-22 23:56:09,4.9333,-52.3333,300.42,84,0,0.45
103,Puerto Ayora,EC,2021-07-22 23:54:43,-0.7393,-90.3518,295.68,88,96,4.02
104,Cape Town,ZA,2021-07-22 23:56:15,-33.9258,18.4232,282.1,82,0,1.34
105,Batagay,RU,2021-07-22 23:59:48,67.6333,134.6333,292.72,50,43,0.97
106,Jega,NG,2021-07-22 23:59:48,12.2175,4.3792,300.4,66,91,5.56
107,Saint-Philippe,RE,2021-07-22 23:55:14,-21.3585,55.7679,291.92,76,43,5.89
108,College,US,2021-07-22 23:50:34,64.8569,-147.8028,300.93,40,40,1.54
109,Hovd,MN,2021-07-22 23:57:46,48.0056,91.6419,297.1,27,99,2.0
110,Vaini,TO,2021-07-22 23:51:36,-21.2,-175.2,300.24,78,20,3.09
111,Torbay,CA,2021-07-22 23:54:54,47.6666,-52.7314,284.58,99,90,5.66
112,Srednekolymsk,RU,2021-07-22 23:59:49,67.45,153.6833,291.89,43,21,5.19
113,Vostok,RU,2021-07-22 23:59:49,46.4856,135.8833,298.64,70,92,0.95
114,Bluff,NZ,2021-07-22 23:55:14,-46.6,168.3333,281.37,68,25,5.1
115,Albany,US,2021-07-22 23:53:33,42.6001,-73.9662,296.08,59,99,4.89
116,Hobart,AU,2021-07-22 23:53:42,-42.8794,147.3294,285.5,64,40,1.79
117,Severo-Kurilsk,RU,2021-07-22 23:54:53,50.6789,156.125,286.38,84,61,1.29
118,Alugan,PH,2021-07-22 23:59:50,12.2188,125.4808,302.22,67,100,6.18
119,Port Alfred,ZA,2021-07-22 23:54:56,-33.5906,26.891,283.98,72,96,8.95
120,Vaini,TO,2021-07-22 23:51:36,-21.2,-175.2,300.24,78,20,3.09
121,Rikitea,PF,2021-07-22 23:54:48,-23.1203,-134.9692,296.08,73,10,8.25
122,Yumen,CN,2021-07-22 23:55:31,40.2833,97.2,300.06,34,13,5.12
123,Pevek,RU,2021-07-22 23:55:05,69.7008,170.3133,278.4,71,56,2.65
124,Avarua,CK,2021-07-22 23:52:03,-21.2078,-159.775,300.18,74,75,5.66
125,Russell,US,2021-07-22 23:55:14,32.3502,-85.1999,304.72,78,90,3.09
126,Punta Arenas,CL,2021-07-22 23:55:12,-53.15,-70.9167,276.21,81,40,2.57
127,Bredasdorp,ZA,2021-07-22 23:55:30,-34.5322,20.0403,279.77,87,32,1.54
128,Weligama,LK,2021-07-22 23:59:50,5.9667,80.4167,299.07,87,100,7.17
129,Jamestown,US,2021-07-22 23:55:20,42.097,-79.2353,294.95,46,1,3.09
130,Galle,LK,2021-07-22 23:59:51,6.0367,80.217,299.66,85,100,7.85
131,Rikitea,PF,2021-07-22 23:54:48,-23.1203,-134.9692,296.08,73,10,8.25
132,Ushuaia,AR,2021-07-22 23:54:46,-54.8,-68.3,277.96,60,40,1.03
133,Xuddur,SO,2021-07-22 23:57:26,4.1213,43.8894,294.01,82,16,9.19
134,Port Elizabeth,ZA,2021-07-22 23:51:23,-33.918,25.5701,283.31,76,75,3.6
135,Ostersund,SE,2021-07-22 23:59:51,63.1792,14.6357,283.49,81,90,8.23
136,Neuquen,AR,2021-07-22 23:59:51,-38.9516,-68.0591,284.09,54,0,0.51
137,Shingu,JP,2021-07-22 23:59:52,33.7333,135.9833,301.7,76,89,3.24
138,Port Elizabeth,ZA,2021-07-22 23:51:23,-33.918,25.5701,283.31,76,75,3.6
139,Kaitangata,NZ,2021-07-22 23:55:44,-46.2817,169.8464,283.11,61,7,2.36
140,Mount Gambier,AU,2021-07-22 23:52:58,-37.8333,140.7667,280.1,87,90,4.63
141,Atuona,PF,2021-07-22 23:54:40,-9.8,-139.0333,298.38,73,90,3.85
142,Kajaani,FI,2021-07-22 23:59:52,64.2273,27.7285,285.18,76,20,2.57
143,Ushuaia,AR,2021-07-22 23:54:46,-54.8,-68.3,277.96,60,40,1.03
144,Tarko-Sale,RU,2021-07-22 23:59:52,64.9225,77.785,289.57,68,100,3.57
145,Tual,ID,2021-07-22 23:55:25,-5.6667,132.75,298.9,85,99,5.77
146,Meulaboh,ID,2021-07-22 23:52:51,4.1363,96.1285,297.77,89,98,1.61
147,Castro,BR,2021-07-22 23:55:15,-24.7911,-50.0119,282.6,56,0,1.61
148,Vaini,TO,2021-07-22 23:51:36,-21.2,-175.2,300.24,78,20,3.09
149,Cape Town,ZA,2021-07-22 23:56:15,-33.9258,18.4232,282.1,82,0,1.34
150,Jamestown,US,2021-07-22 23:55:20,42.097,-79.2353,294.95,46,1,3.09
151,Souillac,MU,2021-07-22 23:57:15,-20.5167,57.5167,294.36,73,40,5.14
152,Kaitangata,NZ,2021-07-22 23:55:44,-46.2817,169.8464,283.11,61,7,2.36
153,Clyde River,CA,2021-07-22 23:59:40,70.4692,-68.5914,276.28,100,90,3.6
154,Rikitea,PF,2021-07-22 23:54:48,-23.1203,-134.9692,296.08,73,10,8.25
155,Ribeira Grande,PT,2021-07-22 23:56:10,38.5167,-28.7,292.37,77,20,3.09
156,Atuona,PF,2021-07-22 23:54:40,-9.8,-139.0333,298.38,73,90,3.85
157,Asau,RO,2021-07-22 23:51:40,46.4333,26.4,287.81,95,17,1.98
158,Rikitea,PF,2021-07-22 23:54:48,-23.1203,-134.9692,296.08,73,10,8.25
159,Bluff,NZ,2021-07-22 23:55:14,-46.6,168.3333,281.37,68,25,5.1
160,Vaini,TO,2021-07-22 23:51:36,-21.2,-175.2,300.24,78,20,3.09
161,Butaritari,KI,2021-07-22 23:54:32,3.0707,172.7902,301.83,75,48,7.17
162,Hithadhoo,MV,2021-07-22 23:56:09,-0.6,73.0833,299.63,81,100,4.48
163,Linguere,SN,2021-07-22 23:59:53,15.3953,-15.1193,300.27,78,0,5.14
164,Barrow,US,2021-07-22 23:51:20,71.2906,-156.7887,277.16,81,90,6.17
165,Luderitz,NA,2021-07-22 23:56:31,-26.6481,15.1594,286.63,35,4,4.1
166,La Asuncion,VE,2021-07-22 23:54:56,11.0333,-63.8628,301.0,83,100,6.69
167,Ribeira Grande,PT,2021-07-22 23:56:10,38.5167,-28.7,292.37,77,20,3.09
168,Tuktoyaktuk,CA,2021-07-22 23:55:39,69.4541,-133.0374,284.15,93,90,6.69
169,Bredasdorp,ZA,2021-07-22 23:55:30,-34.5322,20.0403,279.77,87,32,1.54
170,Thompson,CA,2021-07-22 23:55:19,55.7435,-97.8558,300.24,54,40,4.12
171,Rikitea,PF,2021-07-22 23:54:48,-23.1203,-134.9692,296.08,73,10,8.25
172,Broome,US,2021-07-22 23:55:34,42.2506,-75.833,293.47,60,49,1.94
173,Yulara,AU,2021-07-22 23:55:22,-25.2406,130.9889,283.06,66,3,2.57
174,Aizkraukle,LV,2021-07-22 23:59:54,56.6048,25.2553,288.09,96,1,2.56
175,Inta,RU,2021-07-22 23:59:54,66.0317,60.1659,281.63,67,9,3.71
176,Victoria,HK,2021-07-22 23:54:58,22.2855,114.1577,303.33,84,97,2.24
177,Cape Town,ZA,2021-07-22 23:56:15,-33.9258,18.4232,282.1,82,0,1.34
178,Dalby,AU,2021-07-22 23:59:55,-27.1833,151.2667,288.14,71,88,0.89
179,Pisco,PE,2021-07-22 23:55:03,-13.7,-76.2167,290.18,77,90,5.66
180,Bethel,US,2021-07-22 23:55:07,41.3712,-73.414,297.87,77,98,1.45
181,Hasaki,JP,2021-07-22 23:55:38,35.7333,140.8333,302.37,71,52,2.01
182,Villaviciosa,ES,2021-07-22 23:59:55,43.4813,-5.4357,295.98,90,89,1.47
183,Tuktoyaktuk,CA,2021-07-22 23:55:39,69.4541,-133.0374,284.15,93,90,6.69
184,Butaritari,KI,2021-07-22 23:54:32,3.0707,172.7902,301.83,75,48,7.17
185,Jamestown,US,2021-07-22 23:55:20,42.097,-79.2353,294.95,46,1,3.09
186,Cherskiy,RU,2021-07-22 23:57:09,68.75,161.3,287.44,77,99,1.55
187,Ukiah,US,2021-07-22 23:59:55,39.1502,-123.2078,311.55,25,0,2.68
188,Gurinhem,BR,2021-07-22 23:59:56,-7.1239,-35.4244,296.93,86,31,2.92
189,Kita,ML,2021-07-22 23:56:36,13.0349,-9.4895,297.56,87,98,1.91
190,Punta Arenas,CL,2021-07-22 23:55:12,-53.15,-70.9167,276.21,81,40,2.57
191,Uspenka,UA,2021-07-22 23:59:56,48.3903,39.1619,291.75,68,98,4.67
192,Mareeba,AU,2021-07-22 23:55:07,-17.0,145.4333,297.22,77,44,1.02
193,Kavieng,PG,2021-07-22 23:54:37,-2.5744,150.7967,301.13,79,55,5.3
194,Yeniseysk,RU,2021-07-22 23:55:59,58.4497,92.1703,289.82,70,17,0.5
195,Cockburn Town,TC,2021-07-22 23:56:42,21.4612,-71.1419,300.76,84,71,8.54
196,Moron,AR,2021-07-22 23:56:31,-34.6534,-58.6198,288.7,64,79,2.65
197,Rikitea,PF,2021-07-22 23:54:48,-23.1203,-134.9692,296.08,73,10,8.25
198,Puerto Ayora,EC,2021-07-22 23:54:43,-0.7393,-90.3518,295.68,88,96,4.02
199,Jamestown,US,2021-07-22 23:55:20,42.097,-79.2353,294.95,46,1,3.09
200,Chuy,UY,2021-07-22 23:50:26,-33.6971,-53.4616,283.19,77,88,2.76
201,Carbonia,IT,2021-07-22 23:59:57,39.1672,8.5222,298.7,43,0,1.84
202,Saint-Philippe,RE,2021-07-22 23:55:14,-21.3585,55.7679,291.92,76,43,5.89
203,Jalu,LY,2021-07-22 23:56:12,29.0331,21.5482,299.39,61,2,7.63
204,Busselton,AU,2021-07-22 23:51:29,-33.65,115.3333,285.42,77,100,11.75
205,Rikitea,PF,2021-07-22 23:54:48,-23.1203,-134.9692,296.08,73,10,8.25
206,Castro,BR,2021-07-22 23:55:15,-24.7911,-50.0119,282.6,56,0,1.61
207,Provideniya,RU,2021-07-22 23:54:55,64.3833,-173.3,280.21,81,75,7.0
208,Cidreira,BR,2021-07-22 23:55:18,-30.1811,-50.2056,288.05,84,20,6.82
209,Dikson,RU,2021-07-22 23:59:57,73.5069,80.5464,276.74,96,98,8.35
210,Hobart,AU,2021-07-22 23:53:42,-42.8794,147.3294,285.5,64,40,1.79
211,Talnakh,RU,2021-07-22 23:55:24,69.4865,88.3972,287.55,67,51,2.06
212,Port Elizabeth,ZA,2021-07-22 23:51:23,-33.918,25.5701,283.31,76,75,3.6
213,Vanimo,PG,2021-07-22 23:56:07,-2.6741,141.3028,300.55,86,87,2.13
214,Nanortalik,GL,2021-07-22 23:59:58,60.1432,-45.2371,279.95,90,87,3.57
215,Cape Town,ZA,2021-07-22 23:56:15,-33.9258,18.4232,282.1,82,0,1.34
216,Honiara,SB,2021-07-22 23:59:58,-9.4333,159.95,303.26,65,57,2.28
217,Punta Arenas,CL,2021-07-22 23:55:12,-53.15,-70.9167,276.21,81,40,2.57
218,Hermanus,ZA,2021-07-22 23:54:45,-34.4187,19.2345,279.76,78,29,4.68
219,Jilin,CN,2021-07-22 23:59:58,43.0,126.0,298.96,78,100,2.05
220,Cape Town,ZA,2021-07-22 23:56:15,-33.9258,18.4232,282.1,82,0,1.34
221,Busselton,AU,2021-07-22 23:51:29,-33.65,115.3333,285.42,77,100,11.75
222,Kharitonovo,RU,2021-07-22 23:59:59,61.4009,47.4978,283.33,71,25,1.7
223,Alofi,NU,2021-07-22 23:57:22,-19.0595,-169.9187,300.09,83,75,4.12
224,Galesong,ID,2021-07-22 23:57:09,-5.3166,119.3661,297.16,71,91,2.69
225,Mataura,NZ,2021-07-22 23:54:34,-46.1927,168.8643,281.19,81,12,1.36
226,Komsomolets,KZ,2021-07-22 23:59:59,53.7453,62.0708,293.15,77,37,3.55
227,Sola,VU,2021-07-22 23:56:40,-13.8833,167.55,301.52,79,40,0.0
228,Mocuba,MZ,2021-07-22 23:59:59,-16.8392,36.9856,291.86,98,84,0.87
229,Muzhi,RU,2021-07-23 00:00:00,65.3667,64.6667,282.89,59,100,2.62
230,Ampanihy,MG,2021-07-23 00:00:00,-24.7,44.75,291.69,75,16,1.36
231,Mataura,NZ,2021-07-22 23:54:34,-46.1927,168.8643,281.19,81,12,1.36
232,Santo Antonio Do Ica,BR,2021-07-23 00:00:00,-3.1022,-67.9397,299.68,66,86,0.74
233,Hermanus,ZA,2021-07-22 23:54:45,-34.4187,19.2345,279.76,78,29,4.68
234,Acapulco,MX,2021-07-22 23:58:51,16.8634,-99.8901,303.21,70,24,3.05
235,Avarua,CK,2021-07-22 23:52:03,-21.2078,-159.775,300.18,74,75,5.66
236,Lasa,IT,2021-07-22 23:51:19,46.6166,10.7002,291.64,84,13,1.11
237,Qaanaaq,GL,2021-07-22 23:55:18,77.484,-69.3632,280.52,65,32,0.76
238,Davila,PH,2021-07-23 00:00:01,18.4726,120.5763,301.15,83,100,8.87
239,Ponta Do Sol,PT,2021-07-22 23:56:28,32.6667,-17.1,296.5,79,23,2.67
240,Dikson,RU,2021-07-22 23:59:57,73.5069,80.5464,276.74,96,98,8.35
241,Kodiak,US,2021-07-22 23:54:32,57.79,-152.4072,284.51,98,100,6.81
242,Lompoc,US,2021-07-22 23:54:57,34.6391,-120.4579,301.8,74,75,7.2
243,Qaanaaq,GL,2021-07-22 23:55:18,77.484,-69.3632,280.52,65,32,0.76
244,Ahipara,NZ,2021-07-22 23:56:15,-35.1667,173.1667,287.61,72,32,2.93
245,Baykit,RU,2021-07-22 23:56:32,61.67,96.37,291.14,66,74,0.79
246,Narsaq,GL,2021-07-23 00:00:11,60.9167,-46.05,282.27,94,75,2.77
247,Bengkulu,ID,2021-07-22 23:51:11,-3.8004,102.2655,297.32,84,69,1.52
248,Guerrero Negro,MX,2021-07-22 23:56:13,27.9769,-114.0611,298.76,61,50,6.43
249,Sambava,MG,2021-07-22 23:55:18,-14.2667,50.1667,293.95,86,74,4.47
250,Hobart,AU,2021-07-22 23:53:42,-42.8794,147.3294,285.5,64,40,1.79
251,Lebu,CL,2021-07-22 23:55:06,-37.6167,-73.65,283.12,88,100,2.88
252,Busselton,AU,2021-07-22 23:51:29,-33.65,115.3333,285.42,77,100,11.75
253,Busselton,AU,2021-07-22 23:51:29,-33.65,115.3333,285.42,77,100,11.75
254,Port Elizabeth,ZA,2021-07-22 23:51:23,-33.918,25.5701,283.31,76,75,3.6
255,Kruisfontein,ZA,2021-07-22 23:55:21,-34.0033,24.7314,279.75,84,92,2.63
256,Cape Town,ZA,2021-07-22 23:56:15,-33.9258,18.4232,282.1,82,0,1.34
257,Punta Arenas,CL,2021-07-22 23:55:12,-53.15,-70.9167,276.21,81,40,2.57
258,Nanortalik,GL,2021-07-22 23:59:58,60.1432,-45.2371,279.95,90,87,3.57
259,Pevek,RU,2021-07-22 23:55:05,69.7008,170.3133,278.4,71,56,2.65
260,Rikitea,PF,2021-07-22 23:54:48,-23.1203,-134.9692,296.08,73,10,8.25
261,Hobyo,SO,2021-07-22 23:55:26,5.3505,48.5268,298.09,85,25,13.03
262,Nikolskoye,RU,2021-07-22 23:55:17,59.7035,30.7861,290.09,75,97,2.39
263,Mar Del Plata,AR,2021-07-22 23:55:00,-38.0023,-57.5575,287.09,76,0,1.34
264,Albany,US,2021-07-22 23:53:33,42.6001,-73.9662,296.08,59,99,4.89
265,Newport,GB,2021-07-23 00:00:13,51.5877,-2.9984,294.63,82,82,1.87
266,Severo-Kurilsk,RU,2021-07-22 23:54:53,50.6789,156.125,286.38,84,61,1.29
267,Aranos,NA,2021-07-23 00:00:14,-24.1333,19.1167,274.84,26,0,4.02
268,Kapaa,US,2021-07-22 23:55:11,22.0752,-159.319,303.14,78,77,1.79
269,Jamestown,US,2021-07-22 23:55:20,42.097,-79.2353,294.95,46,1,3.09
270,Paita,PE,2021-07-23 00:00:14,-5.0892,-81.1144,292.01,82,57,7.76
271,Cherskiy,RU,2021-07-22 23:57:09,68.75,161.3,287.44,77,99,1.55
272,Dikson,RU,2021-07-22 23:59:57,73.5069,80.5464,276.74,96,98,8.35
273,Bayir,TR,2021-07-23 00:00:15,37.2687,28.2167,296.44,53,0,2.63
274,Saint-Philippe,RE,2021-07-22 23:55:14,-21.3585,55.7679,291.92,76,43,5.89
275,Busselton,AU,2021-07-22 23:51:29,-33.65,115.3333,285.42,77,100,11.75
276,Ponta Do Sol,PT,2021-07-22 23:56:28,32.6667,-17.1,296.5,79,23,2.67
277,Bay Roberts,CA,2021-07-22 23:57:08,47.5999,-53.2648,285.0,98,98,4.02
278,Bluff,NZ,2021-07-22 23:55:14,-46.6,168.3333,281.37,68,25,5.1
279,Arraial Do Cabo,BR,2021-07-22 23:56:24,-22.9661,-42.0278,290.13,94,20,2.06
280,Yankton,US,2021-07-23 00:00:16,42.8711,-97.3973,306.33,40,0,7.34
281,Ushuaia,AR,2021-07-22 23:54:46,-54.8,-68.3,277.96,60,40,1.03
282,Olafsvik,IS,2021-07-22 23:56:43,64.8945,-23.7142,284.3,97,100,5.03
283,Atuona,PF,2021-07-22 23:54:40,-9.8,-139.0333,298.38,73,90,3.85
284,Leningradskiy,RU,2021-07-22 23:55:37,69.3833,178.4167,277.7,82,84,5.05
285,Hilo,US,2021-07-22 23:50:20,19.7297,-155.09,303.86,80,75,7.2
286,Hobart,AU,2021-07-22 23:53:42,-42.8794,147.3294,285.5,64,40,1.79
287,Ushuaia,AR,2021-07-22 23:54:46,-54.8,-68.3,277.96,60,40,1.03
288,Atasu,KZ,2021-07-23 00:00:16,48.6814,71.6433,292.47,60,12,3.52
289,Baiyin,CN,2021-07-23 00:00:17,36.5583,104.2081,294.68,68,32,1.64
290,Isangel,VU,2021-07-22 23:55:51,-19.55,169.2667,302.21,70,75,2.57
291,Barrow,US,2021-07-22 23:51:20,71.2906,-156.7887,277.16,81,90,6.17
292,Rikitea,PF,2021-07-22 23:54:48,-23.1203,-134.9692,296.08,73,10,8.25
293,Hilo,US,2021-07-22 23:50:20,19.7297,-155.09,303.86,80,75,7.2
294,Saldanha,ZA,2021-07-22 23:52:03,-33.0117,17.9442,277.18,74,2,4.2
295,Mataura,NZ,2021-07-22 23:54:34,-46.1927,168.8643,281.19,81,12,1.36
296,Kodiak,US,2021-07-22 23:54:32,57.79,-152.4072,284.51,98,100,6.81
297,Qaanaaq,GL,2021-07-22 23:55:18,77.484,-69.3632,280.52,65,32,0.76
298,Chuy,UY,2021-07-22 23:50:26,-33.6971,-53.4616,283.19,77,88,2.76
299,Albany,US,2021-07-22 23:53:33,42.6001,-73.9662,296.08,59,99,4.89
300,Tuktoyaktuk,CA,2021-07-22 23:55:39,69.4541,-133.0374,284.15,93,90,6.69
301,Busselton,AU,2021-07-22 23:51:29,-33.65,115.3333,285.42,77,100,11.75
302,Kapaa,US,2021-07-22 23:55:11,22.0752,-159.319,303.14,78,77,1.79
303,El Alto,PE,2021-07-23 00:00:18,-4.2714,-81.2147,290.89,84,64,9.28
304,Yarada,IN,2021-07-23 00:00:19,17.65,83.2667,299.33,89,75,2.57
305,Saint Anthony,US,2021-07-23 00:00:20,45.0205,-93.218,302.73,63,75,1.34
306,Kohima,IN,2021-07-23 00:00:20,25.6667,94.1167,291.91,94,59,1.86
307,Yellowknife,CA,2021-07-22 23:55:08,62.456,-114.3525,294.44,64,75,3.6
308,Busselton,AU,2021-07-22 23:51:29,-33.65,115.3333,285.42,77,100,11.75
309,Noumea,NC,2021-07-22 23:57:49,-22.2763,166.4572,298.15,99,33,2.69
310,Vaini,TO,2021-07-22 23:51:36,-21.2,-175.2,300.24,78,20,3.09
311,Vaini,TO,2021-07-22 23:51:36,-21.2,-175.2,300.24,78,20,3.09
312,Vaini,TO,2021-07-22 23:51:36,-21.2,-175.2,300.24,78,20,3.09
313,Mataura,NZ,2021-07-22 23:54:34,-46.1927,168.8643,281.19,81,12,1.36
314,Mataura,NZ,2021-07-22 23:54:34,-46.1927,168.8643,281.19,81,12,1.36
315,Portsmouth,GB,2021-07-23 00:00:21,50.799,-1.0913,292.47,81,60,0.45
316,Bluff,NZ,2021-07-22 23:55:14,-46.6,168.3333,281.37,68,25,5.1
317,Hilo,US,2021-07-22 23:50:20,19.7297,-155.09,303.86,80,75,7.2
318,Jamestown,US,2021-07-22 23:55:20,42.097,-79.2353,294.95,46,1,3.09
319,Rikitea,PF,2021-07-22 23:54:48,-23.1203,-134.9692,296.08,73,10,8.25
320,Krasnoselkup,RU,2021-07-22 23:55:41,65.7,82.4667,288.99,74,100,1.23
321,Sur,OM,2021-07-23 00:00:22,22.5667,59.5289,306.69,49,4,2.77
322,Bereda,ES,2021-07-23 00:00:22,43.2686,-7.5406,289.58,100,82,0.53
323,Tiksi,RU,2021-07-22 23:55:52,71.6872,128.8694,280.2,75,100,3.32
324,Kapaa,US,2021-07-22 23:55:11,22.0752,-159.319,303.14,78,77,1.79
325,Airai,TL,2021-07-22 23:56:55,-8.9266,125.4092,292.51,31,8,0.97
326,Vaini,TO,2021-07-22 23:51:36,-21.2,-175.2,300.24,78,20,3.09
327,Hobart,AU,2021-07-22 23:53:42,-42.8794,147.3294,285.5,64,40,1.79
328,Kapaa,US,2021-07-22 23:55:11,22.0752,-159.319,303.14,78,77,1.79
329,Port Alfred,ZA,2021-07-22 23:54:56,-33.5906,26.891,283.98,72,96,8.95
330,Victoria,HK,2021-07-22 23:54:58,22.2855,114.1577,303.33,84,97,2.24
331,Ribeira Grande,PT,2021-07-22 23:56:10,38.5167,-28.7,292.37,77,20,3.09
332,Castro,BR,2021-07-22 23:55:15,-24.7911,-50.0119,282.6,56,0,1.61
333,Nikolskoye,RU,2021-07-22 23:55:17,59.7035,30.7861,290.09,75,97,2.39
334,Ushuaia,AR,2021-07-22 23:54:46,-54.8,-68.3,277.96,60,40,1.03
335,Kano,NG,2021-07-23 00:00:23,12.0001,8.5167,296.91,78,53,5.25
336,Georgetown,MY,2021-07-23 00:00:24,5.4112,100.3354,301.98,81,20,0.45
337,Mataura,NZ,2021-07-22 23:54:34,-46.1927,168.8643,281.19,81,12,1.36
338,Punta Arenas,CL,2021-07-22 23:55:12,-53.15,-70.9167,276.21,81,40,2.57
339,Puerto Ayora,EC,2021-07-22 23:54:43,-0.7393,-90.3518,295.68,88,96,4.02
340,Punta Arenas,CL,2021-07-22 23:55:12,-53.15,-70.9167,276.21,81,40,2.57
341,Bluff,NZ,2021-07-22 23:55:14,-46.6,168.3333,281.37,68,25,5.1
342,Atuona,PF,2021-07-22 23:54:40,-9.8,-139.0333,298.38,73,90,3.85
343,Bethel,US,2021-07-22 23:55:07,41.3712,-73.414,297.87,77,98,1.45
344,Komsomolskiy,UZ,2021-07-22 23:56:06,40.4272,71.7189,296.83,40,1,3.09
345,Vaini,TO,2021-07-22 23:51:36,-21.2,-175.2,300.24,78,20,3.09
346,Georgetown,MY,2021-07-23 00:00:24,5.4112,100.3354,301.98,81,20,0.45
347,Alofi,NU,2021-07-22 23:57:22,-19.0595,-169.9187,300.09,83,75,4.12
348,Carnarvon,AU,2021-07-22 23:54:38,-24.8667,113.6333,287.19,78,6,1.54
349,Kontagora,NG,2021-07-23 00:00:25,10.3999,5.4695,294.92,94,91,1.83
350,Puerto Leguizamo,CO,2021-07-23 00:00:25,-0.1934,-74.7819,294.69,97,76,0.82
351,Rikitea,PF,2021-07-22 23:54:48,-23.1203,-134.9692,296.08,73,10,8.25
352,Dikson,RU,2021-07-22 23:59:57,73.5069,80.5464,276.74,96,98,8.35
353,Salekhard,RU,2021-07-23 00:00:26,66.53,66.6019,282.24,62,52,1.35
354,Bluff,NZ,2021-07-22 23:55:14,-46.6,168.3333,281.37,68,25,5.1
355,Itarema,BR,2021-07-22 23:57:31,-2.9248,-39.9167,299.43,80,6,8.87
356,Yellowknife,CA,2021-07-22 23:55:08,62.456,-114.3525,294.44,64,75,3.6
357,Mataura,NZ,2021-07-22 23:54:34,-46.1927,168.8643,281.19,81,12,1.36
358,Puerto Ayora,EC,2021-07-22 23:54:43,-0.7393,-90.3518,295.68,88,96,4.02
359,Mount Gambier,AU,2021-07-22 23:52:58,-37.8333,140.7667,280.1,87,90,4.63
360,Ocampo,MX,2021-07-23 00:00:27,21.65,-101.5,291.75,65,98,5.03
361,Busselton,AU,2021-07-22 23:51:29,-33.65,115.3333,285.42,77,100,11.75
362,Tadine,NC,2021-07-22 23:57:35,-21.55,167.8833,297.05,66,64,3.29
363,Bethel,US,2021-07-22 23:55:07,41.3712,-73.414,297.87,77,98,1.45
364,Bluff,NZ,2021-07-22 23:55:14,-46.6,168.3333,281.37,68,25,5.1
365,Conde,BR,2021-07-23 00:00:28,-7.2597,-34.9075,294.9,88,35,4.14
366,Padang,ID,2021-07-22 23:53:49,-0.9492,100.3543,298.2,83,71,2.03
367,Mahebourg,MU,2021-07-22 23:51:16,-20.4081,57.7,294.31,73,40,5.14
368,Yellowknife,CA,2021-07-22 23:55:08,62.456,-114.3525,294.44,64,75,3.6
369,Busselton,AU,2021-07-22 23:51:29,-33.65,115.3333,285.42,77,100,11.75
370,Kaitangata,NZ,2021-07-22 23:55:44,-46.2817,169.8464,283.11,61,7,2.36
371,Busselton,AU,2021-07-22 23:51:29,-33.65,115.3333,285.42,77,100,11.75
372,Ancud,CL,2021-07-22 23:57:07,-41.8697,-73.8203,281.89,93,100,3.24
373,Puerto Ayora,EC,2021-07-22 23:54:43,-0.7393,-90.3518,295.68,88,96,4.02
374,Cidreira,BR,2021-07-22 23:55:18,-30.1811,-50.2056,288.05,84,20,6.82
375,Vila Franca Do Campo,PT,2021-07-22 23:55:59,37.7167,-25.4333,291.38,80,48,2.08
376,Rikitea,PF,2021-07-22 23:54:48,-23.1203,-134.9692,296.08,73,10,8.25
377,Rikitea,PF,2021-07-22 23:54:48,-23.1203,-134.9692,296.08,73,10,8.25
378,Araouane,ML,2021-07-23 00:00:29,18.9048,-3.5265,307.76,28,29,2.57
379,Port Elizabeth,ZA,2021-07-22 23:51:23,-33.918,25.5701,283.31,76,75,3.6
380,Kapaa,US,2021-07-22 23:55:11,22.0752,-159.319,303.14,78,77,1.79
381,Rikitea,PF,2021-07-22 23:54:48,-23.1203,-134.9692,296.08,73,10,8.25
382,Bay Roberts,CA,2021-07-22 23:57:08,47.5999,-53.2648,285.0,98,98,4.02
383,Vaini,TO,2021-07-22 23:51:36,-21.2,-175.2,300.24,78,20,3.09
384,Ushuaia,AR,2021-07-22 23:54:46,-54.8,-68.3,277.96,60,40,1.03
385,Jamestown,US,2021-07-22 23:55:20,42.097,-79.2353,294.95,46,1,3.09
386,East London,ZA,2021-07-22 23:54:50,-33.0153,27.9116,284.1,70,99,9.46
387,Novikovo,RU,2021-07-23 00:00:30,51.1537,37.8879,286.08,61,0,2.99
388,New Norfolk,AU,2021-07-22 23:55:15,-42.7826,147.0587,285.31,65,65,0.89
389,Hilo,US,2021-07-22 23:50:20,19.7297,-155.09,303.86,80,75,7.2
390,Albany,US,2021-07-22 23:53:33,42.6001,-73.9662,296.08,59,99,4.89
391,Port Alfred,ZA,2021-07-22 23:54:56,-33.5906,26.891,283.98,72,96,8.95
392,Abu Samrah,SY,2021-07-23 00:00:30,35.3029,37.1841,296.3,77,0,4.41
393,Albany,US,2021-07-22 23:53:33,42.6001,-73.9662,296.08,59,99,4.89
394,Barrow,US,2021-07-22 23:51:20,71.2906,-156.7887,277.16,81,90,6.17
395,Antalaha,MG,2021-07-22 23:56:04,-14.9003,50.2788,293.08,88,72,3.65
396,New Norfolk,AU,2021-07-22 23:55:15,-42.7826,147.0587,285.31,65,65,0.89
397,Puerto Ayora,EC,2021-07-22 23:54:43,-0.7393,-90.3518,295.68,88,96,4.02
398,Albany,US,2021-07-22 23:53:33,42.6001,-73.9662,296.08,59,99,4.89
399,Kaeo,NZ,2021-07-23 00:00:31,-35.1,173.7833,287.77,87,47,1.38
400,Ilulissat,GL,2021-07-22 23:55:29,69.2167,-51.1,277.0,90,99,0.81
401,Henties Bay,NA,2021-07-22 23:54:48,-22.116,14.2845,284.18,78,0,2.51
402,Busselton,AU,2021-07-22 23:51:29,-33.65,115.3333,285.42,77,100,11.75
403,Shubarshi,KZ,2021-07-23 00:00:32,48.5872,57.1869,301.04,29,43,4.04
404,Rikitea,PF,2021-07-22 23:54:48,-23.1203,-134.9692,296.08,73,10,8.25
405,Russell,US,2021-07-22 23:55:14,32.3502,-85.1999,304.72,78,90,3.09
406,Nosy Varika,MG,2021-07-23 00:00:32,-20.5833,48.5333,291.02,91,14,1.63
407,Arraial Do Cabo,BR,2021-07-22 23:56:24,-22.9661,-42.0278,290.13,94,20,2.06
408,Fort Nelson,CA,2021-07-22 23:56:56,58.8053,-122.7002,288.92,88,90,3.6
409,Bras-Panon,RE,2021-07-23 00:00:32,-20.9967,55.6782,291.96,77,20,5.19
410,Hithadhoo,MV,2021-07-22 23:56:09,-0.6,73.0833,299.63,81,100,4.48
411,Bluff,NZ,2021-07-22 23:55:14,-46.6,168.3333,281.37,68,25,5.1
412,Mahebourg,MU,2021-07-22 23:51:16,-20.4081,57.7,294.31,73,40,5.14
413,Arraial Do Cabo,BR,2021-07-22 23:56:24,-22.9661,-42.0278,290.13,94,20,2.06
414,Mataura,NZ,2021-07-22 23:54:34,-46.1927,168.8643,281.19,81,12,1.36
415,Tuktoyaktuk,CA,2021-07-22 23:55:39,69.4541,-133.0374,284.15,93,90,6.69
416,Kearney,US,2021-07-23 00:00:33,40.6995,-99.0815,305.66,27,0,5.02
417,Cobija,BO,2021-07-23 00:00:34,-11.0267,-68.7692,296.99,45,1,0.57
418,Kabalo,CD,2021-07-23 00:00:34,-6.05,26.9167,296.94,36,5,1.58
419,Haines Junction,CA,2021-07-22 23:57:42,60.7522,-137.5108,293.12,40,41,4.63
420,Berlevag,NO,2021-07-23 00:00:35,70.8578,29.0864,279.65,82,100,12.32
421,Cape Town,ZA,2021-07-22 23:56:15,-33.9258,18.4232,282.1,82,0,1.34
422,Klaksvik,FO,2021-07-22 23:57:28,62.2266,-6.589,282.66,91,81,4.44
423,Muli,MV,2021-07-22 23:56:11,2.9167,73.5667,301.1,75,93,5.4
424,Ushuaia,AR,2021-07-22 23:54:46,-54.8,-68.3,277.96,60,40,1.03
425,Waingapu,ID,2021-07-22 23:56:56,-9.6567,120.2641,298.03,61,7,1.82
426,Ahipara,NZ,2021-07-22 23:56:15,-35.1667,173.1667,287.61,72,32,2.93
427,Tsaratanana,MG,2021-07-23 00:00:35,-16.7833,47.65,290.17,73,4,3.95
428,Mopipi,BW,2021-07-23 00:00:36,-21.1833,24.8833,278.75,15,0,4.29
429,Busselton,AU,2021-07-22 23:51:29,-33.65,115.3333,285.42,77,100,11.75
430,Punta Arenas,CL,2021-07-22 23:55:12,-53.15,-70.9167,276.21,81,40,2.57
431,Tuktoyaktuk,CA,2021-07-22 23:55:39,69.4541,-133.0374,284.15,93,90,6.69
432,Puerto Ayora,EC,2021-07-22 23:54:43,-0.7393,-90.3518,295.68,88,96,4.02
433,Albany,US,2021-07-22 23:53:33,42.6001,-73.9662,296.08,59,99,4.89
434,Floro,NO,2021-07-23 00:00:36,61.5996,5.0328,285.13,94,58,2.06
435,Severobaykalsk,RU,2021-07-23 00:00:37,55.65,109.3167,285.51,85,49,0.58
436,Bathsheba,BB,2021-07-22 23:50:52,13.2167,-59.5167,301.49,78,75,7.2
437,Huarmey,PE,2021-07-23 00:00:37,-10.0681,-78.1522,291.42,82,10,4.34
438,Upernavik,GL,2021-07-22 23:51:26,72.7868,-56.1549,277.81,95,100,1.55
439,Hambantota,LK,2021-07-22 23:55:45,6.1241,81.1185,299.77,79,100,9.15
440,Beyneu,KZ,2021-07-23 00:00:38,45.3167,55.2,303.37,21,26,6.24
441,Wuxue,CN,2021-07-23 00:00:38,29.8506,115.5525,300.16,83,39,3.92
442,Ushuaia,AR,2021-07-22 23:54:46,-54.8,-68.3,277.96,60,40,1.03
443,Ribeira Grande,PT,2021-07-22 23:56:10,38.5167,-28.7,292.37,77,20,3.09
444,Nome,US,2021-07-23 00:00:39,64.5011,-165.4064,283.77,77,100,6.34
445,Luderitz,NA,2021-07-22 23:56:31,-26.6481,15.1594,286.63,35,4,4.1
446,Mataura,NZ,2021-07-22 23:54:34,-46.1927,168.8643,281.19,81,12,1.36
447,Mount Isa,AU,2021-07-23 00:00:39,-20.7333,139.5,296.02,27,65,4.63
448,Albany,US,2021-07-22 23:53:33,42.6001,-73.9662,296.08,59,99,4.89
449,Yining,CN,2021-07-23 00:00:39,29.0361,114.5636,300.52,80,41,1.78
450,Rikitea,PF,2021-07-22 23:54:48,-23.1203,-134.9692,296.08,73,10,8.25
451,Kudahuvadhoo,MV,2021-07-22 23:57:05,2.6708,72.8944,301.17,74,97,5.56
452,Bossier City,US,2021-07-22 23:59:08,32.516,-93.7321,306.45,66,50,2.19
453,Rikitea,PF,2021-07-22 23:54:48,-23.1203,-134.9692,296.08,73,10,8.25
454,Ribeira Grande,PT,2021-07-22 23:56:10,38.5167,-28.7,292.37,77,20,3.09
455,Mataura,NZ,2021-07-22 23:54:34,-46.1927,168.8643,281.19,81,12,1.36
456,Nieuw Nickerie,SR,2021-07-23 00:00:40,5.95,-56.9833,300.22,84,38,4.6
457,Leningradskiy,RU,2021-07-22 23:55:37,69.3833,178.4167,277.7,82,84,5.05
458,Nome,US,2021-07-23 00:00:39,64.5011,-165.4064,283.77,77,100,6.34
459,Tynda,RU,2021-07-23 00:00:41,55.1667,124.7167,293.58,92,86,1.95
460,Cape Town,ZA,2021-07-22 23:56:15,-33.9258,18.4232,282.1,82,0,1.34
461,Busselton,AU,2021-07-22 23:51:29,-33.65,115.3333,285.42,77,100,11.75
462,Bengkulu,ID,2021-07-22 23:51:11,-3.8004,102.2655,297.32,84,69,1.52
463,Tateyama,JP,2021-07-22 23:56:18,34.9833,139.8667,303.16,72,2,1.9
464,Busselton,AU,2021-07-22 23:51:29,-33.65,115.3333,285.42,77,100,11.75
465,Ribeira Grande,PT,2021-07-22 23:56:10,38.5167,-28.7,292.37,77,20,3.09
466,Cape Town,ZA,2021-07-22 23:56:15,-33.9258,18.4232,282.1,82,0,1.34
467,Dwarka,IN,2021-07-22 23:55:31,22.2394,68.9678,301.28,85,100,8.48
468,Kharhial,IN,2021-07-23 00:00:42,20.2833,82.7667,298.66,91,100,2.19
469,Punta Arenas,CL,2021-07-22 23:55:12,-53.15,-70.9167,276.21,81,40,2.57
470,Lata,PT,2021-07-22 23:57:38,40.1629,-8.3327,290.4,97,96,0.45
471,Punta Arenas,CL,2021-07-22 23:55:12,-53.15,-70.9167,276.21,81,40,2.57
472,Matara,LK,2021-07-23 00:00:42,5.9485,80.5353,298.94,87,100,7.03
473,Sitia,GR,2021-07-23 00:00:42,35.2,26.0986,298.43,75,0,11.48
474,Lisakovsk,KZ,2021-07-23 00:00:43,52.5369,62.4936,295.19,57,4,3.81
475,Zhezkazgan,KZ,2021-07-23 00:00:43,47.8043,67.7144,295.02,44,0,3.78
476,Faya,SA,2021-07-23 00:00:44,18.3851,42.4509,288.67,84,99,4.38
477,Mataura,NZ,2021-07-22 23:54:34,-46.1927,168.8643,281.19,81,12,1.36
478,Mahebourg,MU,2021-07-22 23:51:16,-20.4081,57.7,294.31,73,40,5.14
479,Kruisfontein,ZA,2021-07-22 23:55:21,-34.0033,24.7314,279.75,84,92,2.63
480,Yellowknife,CA,2021-07-22 23:55:08,62.456,-114.3525,294.44,64,75,3.6
481,Puerto Ayora,EC,2021-07-22 23:54:43,-0.7393,-90.3518,295.68,88,96,4.02
482,Bredasdorp,ZA,2021-07-22 23:55:30,-34.5322,20.0403,279.77,87,32,1.54
483,Miyako,JP,2021-07-23 00:00:44,39.6367,141.9525,299.08,81,58,2.94
484,Georgetown,MY,2021-07-23 00:00:24,5.4112,100.3354,301.98,81,20,0.45
485,Paita,PE,2021-07-23 00:00:14,-5.0892,-81.1144,292.01,82,57,7.76
486,San Quintin,MX,2021-07-23 00:00:45,30.4833,-115.95,296.62,72,3,5.05
487,Kaitangata,NZ,2021-07-22 23:55:44,-46.2817,169.8464,283.11,61,7,2.36
488,Georgetown,MY,2021-07-23 00:00:24,5.4112,100.3354,301.98,81,20,0.45
489,Avarua,CK,2021-07-22 23:52:03,-21.2078,-159.775,300.18,74,75,5.66
490,Praia Da Vitoria,PT,2021-07-22 23:55:45,38.7333,-27.0667,293.29,77,40,4.55
491,Nanortalik,GL,2021-07-22 23:59:58,60.1432,-45.2371,279.95,90,87,3.57
492,Ushuaia,AR,2021-07-22 23:54:46,-54.8,-68.3,277.96,60,40,1.03
493,Tiksi,RU,2021-07-22 23:55:52,71.6872,128.8694,280.2,75,100,3.32
494,Arraial Do Cabo,BR,2021-07-22 23:56:24,-22.9661,-42.0278,290.13,94,20,2.06
495,Rio Gallegos,AR,2021-07-23 00:00:45,-51.6226,-69.2181,276.52,66,20,4.92
496,Khatanga,RU,2021-07-22 23:51:17,71.9667,102.5,290.09,64,79,4.63
497,Hermanus,ZA,2021-07-22 23:54:45,-34.4187,19.2345,279.76,78,29,4.68
498,Hilo,US,2021-07-22 23:50:20,19.7297,-155.09,303.86,80,75,7.2
499,Ponta Do Sol,PT,2021-07-22 23:56:28,32.6667,-17.1,296.5,79,23,2.67
500,Clyde River,CA,2021-07-22 23:59:40,70.4692,-68.5914,276.28,100,90,3.6
501,Sur,OM,2021-07-23 00:00:22,22.5667,59.5289,306.69,49,4,2.77
502,Bonthe,SL,2021-07-22 23:54:36,7.5264,-12.505,297.68,90,88,3.41
503,Lorengau,PG,2021-07-22 23:55:20,-2.0226,147.2712,301.68,76,47,2.49
504,Vaini,TO,2021-07-22 23:51:36,-21.2,-175.2,300.24,78,20,3.09
505,Atuona,PF,2021-07-22 23:54:40,-9.8,-139.0333,298.38,73,90,3.85
506,Punta Arenas,CL,2021-07-22 23:55:12,-53.15,-70.9167,276.21,81,40,2.57
507,Mayor Pablo Lagerenza,PY,2021-07-23 00:00:46,-19.9309,-60.7718,296.2,29,0,2.17
508,Balabac,PH,2021-07-23 00:00:46,7.9868,117.0645,302.19,80,100,7.51
509,Goregaon,IN,2021-07-23 00:00:47,18.1667,73.3,298.59,91,100,3.57
510,Sola,VU,2021-07-22 23:56:40,-13.8833,167.55,301.52,79,40,0.0
511,Birao,CF,2021-07-23 00:00:47,10.2849,22.7882,293.63,94,82,1.56
512,Nikolskoye,RU,2021-07-22 23:55:17,59.7035,30.7861,290.09,75,97,2.39
513,Cabo San Lucas,MX,2021-07-22 23:53:32,22.8909,-109.9124,311.21,66,2,4.22
514,Barrow,US,2021-07-22 23:51:20,71.2906,-156.7887,277.16,81,90,6.17
515,Castro,BR,2021-07-22 23:55:15,-24.7911,-50.0119,282.6,56,0,1.61
516,Mataura,NZ,2021-07-22 23:54:34,-46.1927,168.8643,281.19,81,12,1.36
517,Tura,IN,2021-07-22 23:52:58,25.5198,90.2201,296.98,95,98,2.57
518,Aranos,NA,2021-07-23 00:00:14,-24.1333,19.1167,274.84,26,0,4.02
519,Inhambane,MZ,2021-07-23 00:00:48,-23.865,35.3833,291.65,66,0,6.66
520,Da Nang,VN,2021-07-23 00:00:00,16.0678,108.2208,305.14,51,75,0.51
521,Rikitea,PF,2021-07-22 23:54:48,-23.1203,-134.9692,296.08,73,10,8.25
522,Bodden Town,KY,2021-07-23 00:00:48,19.2833,-81.25,302.59,80,77,2.24
523,Kemijarvi,FI,2021-07-22 23:51:46,66.7131,27.4306,277.98,94,63,1.78
524,Jalu,LY,2021-07-22 23:56:12,29.0331,21.5482,299.39,61,2,7.63
525,Kuching,MY,2021-07-23 00:00:49,1.55,110.3333,299.27,89,20,1.03
526,Jamestown,US,2021-07-22 23:55:20,42.097,-79.2353,294.95,46,1,3.09
527,Qaanaaq,GL,2021-07-22 23:55:18,77.484,-69.3632,280.52,65,32,0.76
528,Jamestown,US,2021-07-22 23:55:20,42.097,-79.2353,294.95,46,1,3.09
529,Jamestown,US,2021-07-22 23:55:20,42.097,-79.2353,294.95,46,1,3.09
530,Solnechnyy,RU,2021-07-22 23:55:11,50.7214,136.6319,302.88,57,84,1.63
531,Bubaque,GW,2021-07-23 00:00:49,11.2833,-15.8333,299.97,85,34,7.04
532,Busselton,AU,2021-07-22 23:51:29,-33.65,115.3333,285.42,77,100,11.75
533,Busselton,AU,2021-07-22 23:51:29,-33.65,115.3333,285.42,77,100,11.75
534,Bredasdorp,ZA,2021-07-22 23:55:30,-34.5322,20.0403,279.77,87,32,1.54
535,Thayetmyo,MM,2021-07-23 00:00:49,19.3167,95.1833,298.02,95,94,3.79
536,Yellowknife,CA,2021-07-22 23:55:08,62.456,-114.3525,294.44,64,75,3.6
537,Pampierstad,ZA,2021-07-23 00:00:50,-27.7832,24.6877,271.7,53,0,3.42
538,Bluff,NZ,2021-07-22 23:55:14,-46.6,168.3333,281.37,68,25,5.1
539,Rio Grande,BR,2021-07-23 00:00:50,-32.035,-52.0986,285.34,80,68,4.34
540,Georgetown,MY,2021-07-23 00:00:24,5.4112,100.3354,301.98,81,20,0.45
541,Ushuaia,AR,2021-07-22 23:54:46,-54.8,-68.3,277.96,60,40,1.03
542,Arlit,NE,2021-07-23 00:00:51,18.7369,7.3853,304.6,39,100,2.65
543,Atuona,PF,2021-07-22 23:54:40,-9.8,-139.0333,298.38,73,90,3.85
544,Nikolskoye,RU,2021-07-22 23:55:17,59.7035,30.7861,290.09,75,97,2.39
545,Mehamn,NO,2021-07-23 00:00:51,71.0357,27.8492,279.39,79,100,10.4
546,Teseney,ER,2021-07-23 00:00:52,15.11,36.6575,296.5,72,88,3.56
547,Castro,BR,2021-07-22 23:55:15,-24.7911,-50.0119,282.6,56,0,1.61
548,Yellowknife,CA,2021-07-22 23:55:08,62.456,-114.3525,294.44,64,75,3.6
549,Albany,US,2021-07-22 23:53:33,42.6001,-73.9662,296.08,59,99,4.89
550,Ponta Do Sol,PT,2021-07-22 23:56:28,32.6667,-17.1,296.5,79,23,2.67
551,Dingle,PH,2021-07-22 23:54:36,10.9995,122.6711,300.57,80,100,7.83
552,Bluff,NZ,2021-07-22 23:55:14,-46.6,168.3333,281.37,68,25,5.1
553,Arraial Do Cabo,BR,2021-07-22 23:56:24,-22.9661,-42.0278,290.13,94,20,2.06
554,Lompoc,US,2021-07-22 23:54:57,34.6391,-120.4579,301.8,74,75,7.2
555,Padang,ID,2021-07-22 23:53:49,-0.9492,100.3543,298.2,83,71,2.03
556,Bilma,NE,2021-07-22 23:59:46,18.6853,12.9164,301.69,53,67,6.47
557,Marawi,PH,2021-07-22 23:53:58,7.9986,124.2928,296.84,73,100,3.61
558,Carnarvon,AU,2021-07-22 23:54:38,-24.8667,113.6333,287.19,78,6,1.54
559,Buala,SB,2021-07-22 23:56:01,-8.145,159.5921,301.77,74,39,3.65
560,Mataura,NZ,2021-07-22 23:54:34,-46.1927,168.8643,281.19,81,12,1.36
561,Walvis Bay,NA,2021-07-22 23:57:24,-22.9575,14.5053,284.31,71,0,4.12
562,Tuatapere,NZ,2021-07-22 23:55:15,-46.1333,167.6833,281.38,70,12,2.48
563,Biak,ID,2021-07-23 00:00:53,-0.9131,122.8766,297.6,85,93,2.14
564,Georgetown,MY,2021-07-23 00:00:24,5.4112,100.3354,301.98,81,20,0.45
565,Angadanan,PH,2021-07-23 00:00:53,16.7553,121.7483,299.48,82,100,1.33
566,Sokolo,ML,2021-07-23 00:00:54,14.7328,-6.1219,301.74,63,72,7.21
567,Severodvinsk,RU,2021-07-22 23:54:25,64.5635,39.8302,279.21,88,88,2.28
568,Xai-Xai,MZ,2021-07-22 23:56:15,-25.0519,33.6442,291.9,52,34,6.65
569,Guerrero,MX,2021-07-23 00:00:54,17.6667,-100.0,296.89,89,55,0.79
570,Jinchang,CN,2021-07-23 00:00:54,38.4953,102.1739,298.45,49,23,1.84
571,Saint-Philippe,RE,2021-07-22 23:55:14,-21.3585,55.7679,291.92,76,43,5.89
572,Clyde River,CA,2021-07-22 23:59:40,70.4692,-68.5914,276.28,100,90,3.6
573,Kavieng,PG,2021-07-22 23:54:37,-2.5744,150.7967,301.13,79,55,5.3
574,Albany,US,2021-07-22 23:53:33,42.6001,-73.9662,296.08,59,99,4.89
575,Ushuaia,AR,2021-07-22 23:54:46,-54.8,-68.3,277.96,60,40,1.03
576,Butaritari,KI,2021-07-22 23:54:32,3.0707,172.7902,301.83,75,48,7.17
577,Ambon,ID,2021-07-22 23:56:59,-3.6954,128.1814,298.23,94,40,1.03
578,Jamestown,US,2021-07-22 23:55:20,42.097,-79.2353,294.95,46,1,3.09
579,Avarua,CK,2021-07-22 23:52:03,-21.2078,-159.775,300.18,74,75,5.66
580,Yunyang,CN,2021-07-23 00:00:55,33.4474,112.7142,295.89,95,98,4.08
581,Cape Town,ZA,2021-07-22 23:56:15,-33.9258,18.4232,282.1,82,0,1.34
582,Vaini,TO,2021-07-22 23:51:36,-21.2,-175.2,300.24,78,20,3.09
583,Hobart,AU,2021-07-22 23:53:42,-42.8794,147.3294,285.5,64,40,1.79
584,Ushuaia,AR,2021-07-22 23:54:46,-54.8,-68.3,277.96,60,40,1.03
585,Nyimba,ZM,2021-07-23 00:00:56,-14.5566,30.8149,291.52,48,2,0.19
586,Butaritari,KI,2021-07-22 23:54:32,3.0707,172.7902,301.83,75,48,7.17
587,Sioux Lookout,CA,2021-07-22 23:56:21,50.1001,-91.917,299.19,61,40,4.12
588,Kapaa,US,2021-07-22 23:55:11,22.0752,-159.319,303.14,78,77,1.79
589,Kapaa,US,2021-07-22 23:55:11,22.0752,-159.319,303.14,78,77,1.79
590,Clyde River,CA,2021-07-22 23:59:40,70.4692,-68.5914,276.28,100,90,3.6
591,Kahului,US,2021-07-22 23:50:43,20.8947,-156.47,303.16,63,40,11.83
592,Pisco,PE,2021-07-22 23:55:03,-13.7,-76.2167,290.18,77,90,5.66
593,Mataura,NZ,2021-07-22 23:54:34,-46.1927,168.8643,281.19,81,12,1.36
594,Kamenka,RU,2021-07-22 23:50:26,51.3223,42.7678,287.54,80,54,3.68
595,Altay,CN,2021-07-23 00:00:57,47.8667,88.1167,295.84,47,100,3.59
596,Malpe,IN,2021-07-23 00:00:57,13.35,74.7167,298.76,90,100,2.78
597,Georgetown,MY,2021-07-23 00:00:24,5.4112,100.3354,301.98,81,20,0.45
598,Kodiak,US,2021-07-22 23:54:32,57.79,-152.4072,284.51,98,100,6.81
599,Benin,BJ,2021-07-23 00:00:58,9.5,2.25,295.27,94,70,1.86
600,Port Alfred,ZA,2021-07-22 23:54:56,-33.5906,26.891,283.98,72,96,8.95
601,Ajdabiya,LY,2021-07-23 00:00:58,30.7554,20.2263,298.36,71,0,5.52
602,Kem,RU,2021-07-23 00:00:59,64.9555,34.5793,280.56,85,73,4.46
603,Mataura,NZ,2021-07-22 23:54:34,-46.1927,168.8643,281.19,81,12,1.36
604,Tasiilaq,GL,2021-07-22 23:55:27,65.6145,-37.6368,277.81,97,100,1.13
605,Ushuaia,AR,2021-07-22 23:54:46,-54.8,-68.3,277.96,60,40,1.03
606,Victoria,HK,2021-07-22 23:54:58,22.2855,114.1577,303.33,84,97,2.24
607,Saint George,US,2021-07-22 23:54:45,37.1041,-113.5841,307.83,38,1,2.68
608,Thompson,CA,2021-07-22 23:55:19,55.7435,-97.8558,300.24,54,40,4.12
609,Vaini,TO,2021-07-22 23:51:36,-21.2,-175.2,300.24,78,20,3.09
610,Ushuaia,AR,2021-07-22 23:54:46,-54.8,-68.3,277.96,60,40,1.03
611,Saint-Philippe,RE,2021-07-22 23:55:14,-21.3585,55.7679,291.92,76,43,5.89
612,Kuryk,KZ,2021-07-23 00:00:59,43.2,51.65,302.62,49,84,2.83
613,Chuy,UY,2021-07-22 23:50:26,-33.6971,-53.4616,283.19,77,88,2.76
614,Ancud,CL,2021-07-22 23:57:07,-41.8697,-73.8203,281.89,93,100,3.24
615,Port Hardy,CA,2021-07-22 23:56:29,50.6996,-127.4199,289.25,72,75,4.12
616,Bredasdorp,ZA,2021-07-22 23:55:30,-34.5322,20.0403,279.77,87,32,1.54
617,Kaitangata,NZ,2021-07-22 23:55:44,-46.2817,169.8464,283.11,61,7,2.36
618,Katsuura,JP,2021-07-22 23:52:04,35.1333,140.3,303.21,71,16,2.19
619,Punta Arenas,CL,2021-07-22 23:55:12,-53.15,-70.9167,276.21,81,40,2.57
620,Yar-Sale,RU,2021-07-22 23:54:46,66.8333,70.8333,282.99,65,85,2.72
621,Nome,US,2021-07-23 00:00:39,64.5011,-165.4064,283.77,77,100,6.34
622,Maple Creek,CA,2021-07-23 00:01:00,49.9168,-109.4848,306.53,7,17,10.22
623,Husavik,IS,2021-07-22 23:54:52,66.0449,-17.3389,286.1,72,76,3.13
624,Saint-Philippe,RE,2021-07-22 23:55:14,-21.3585,55.7679,291.92,76,43,5.89
625,Westminster,US,2021-07-23 00:01:01,39.8367,-105.0372,307.63,31,1,2.68
626,Kenai,US,2021-07-22 23:51:48,60.5544,-151.2583,292.05,78,90,4.63
627,Alofi,NU,2021-07-22 23:57:22,-19.0595,-169.9187,300.09,83,75,4.12
628,Sumenep,ID,2021-07-23 00:01:01,-7.0167,113.8667,300.32,73,55,5.13
629,Saint-Philippe,RE,2021-07-22 23:55:14,-21.3585,55.7679,291.92,76,43,5.89
630,Mehamn,NO,2021-07-23 00:00:51,71.0357,27.8492,279.39,79,100,10.4
631,Esmeraldas,BR,2021-07-22 23:54:08,-19.7625,-44.3139,291.63,58,31,3.15
632,Kyabe,TD,2021-07-23 00:01:01,9.4515,18.9449,293.69,96,100,0.58
633,Port Lincoln,AU,2021-07-22 23:55:12,-34.7333,135.8667,286.08,76,49,4.49
634,New Norfolk,AU,2021-07-22 23:55:15,-42.7826,147.0587,285.31,65,65,0.89
635,Ushuaia,AR,2021-07-22 23:54:46,-54.8,-68.3,277.96,60,40,1.03
636,Ahipara,NZ,2021-07-22 23:56:15,-35.1667,173.1667,287.61,72,32,2.93
637,Ponta Do Sol,PT,2021-07-22 23:56:28,32.6667,-17.1,296.5,79,23,2.67
638,Manono,CD,2021-07-23 00:01:02,-7.3,27.4167,295.83,38,17,1.57
639,Ushuaia,AR,2021-07-22 23:54:46,-54.8,-68.3,277.96,60,40,1.03
640,Richards Bay,ZA,2021-07-23 00:01:02,-28.783,32.0377,284.65,38,0,5.48
641,Cape Town,ZA,2021-07-22 23:56:15,-33.9258,18.4232,282.1,82,0,1.34
642,Qaanaaq,GL,2021-07-22 23:55:18,77.484,-69.3632,280.52,65,32,0.76
643,Avarua,CK,2021-07-22 23:52:03,-21.2078,-159.775,300.18,74,75,5.66
644,Grindavik,IS,2021-07-22 23:54:59,63.8424,-22.4338,286.79,100,90,7.72
645,Carnarvon,AU,2021-07-22 23:54:38,-24.8667,113.6333,287.19,78,6,1.54
646,Port Pirie,AU,2021-07-23 00:01:03,-33.1833,138.0167,283.09,83,24,1.85
647,Clyde River,CA,2021-07-22 23:59:40,70.4692,-68.5914,276.28,100,90,3.6
648,Tuktoyaktuk,CA,2021-07-22 23:55:39,69.4541,-133.0374,284.15,93,90,6.69
649,Merritt Island,US,2021-07-22 23:56:18,28.5392,-80.672,302.63,89,75,0.0
650,Carnarvon,AU,2021-07-22 23:54:38,-24.8667,113.6333,287.19,78,6,1.54
651,New Norfolk,AU,2021-07-22 23:55:15,-42.7826,147.0587,285.31,65,65,0.89
652,Nanortalik,GL,2021-07-22 23:59:58,60.1432,-45.2371,279.95,90,87,3.57
653,Maues,BR,2021-07-23 00:01:03,-3.3836,-57.7186,300.07,68,72,0.83
654,Port Alfred,ZA,2021-07-22 23:54:56,-33.5906,26.891,283.98,72,96,8.95
655,Ostrovnoy,RU,2021-07-22 23:54:33,68.0531,39.5131,277.46,87,48,8.57
656,Port Hardy,CA,2021-07-22 23:56:29,50.6996,-127.4199,289.25,72,75,4.12
657,Guerrero Negro,MX,2021-07-22 23:56:13,27.9769,-114.0611,298.76,61,50,6.43
658,Povenets,RU,2021-07-23 00:01:04,62.8487,34.8262,283.65,90,100,3.48
659,Russell,US,2021-07-22 23:55:14,32.3502,-85.1999,304.72,78,90,3.09
660,Yeppoon,AU,2021-07-23 00:01:04,-23.1333,150.7333,290.03,57,0,3.32
661,Lubao,PH,2021-07-23 00:01:05,14.9167,120.55,299.9,95,100,3.54
662,Alofi,NU,2021-07-22 23:57:22,-19.0595,-169.9187,300.09,83,75,4.12
663,Krasnokamensk,RU,2021-07-23 00:01:05,50.0979,118.0369,294.13,82,94,3.93
664,Sao Filipe,CV,2021-07-23 00:01:06,14.8961,-24.4956,296.59,87,22,3.26
665,Padang,ID,2021-07-22 23:53:49,-0.9492,100.3543,298.2,83,71,2.03
666,Severo-Kurilsk,RU,2021-07-22 23:54:53,50.6789,156.125,286.38,84,61,1.29
667,Tekit,MX,2021-07-23 00:01:06,20.5333,-89.3333,305.31,34,1,1.91
668,Boende,CD,2021-07-23 00:01:06,-0.2167,20.8667,298.85,40,95,1.44
669,Muros,ES,2021-07-22 23:56:42,42.7762,-9.0603,291.43,90,79,1.58
670,Yambio,SS,2021-07-23 00:01:06,4.5721,28.3955,292.76,93,97,0.56
671,Dalby,AU,2021-07-22 23:59:55,-27.1833,151.2667,288.14,71,88,0.89
672,Ushuaia,AR,2021-07-22 23:54:46,-54.8,-68.3,277.96,60,40,1.03
673,Upernavik,GL,2021-07-22 23:51:26,72.7868,-56.1549,277.81,95,100,1.55
674,Norman Wells,CA,2021-07-22 23:55:23,65.282,-126.8329,299.17,50,40,6.17
675,Arlit,NE,2021-07-23 00:00:51,18.7369,7.3853,304.6,39,100,2.65
676,Albany,US,2021-07-22 23:53:33,42.6001,-73.9662,296.08,59,99,4.89
677,Esperance,AU,2021-07-22 23:54:53,-33.8667,121.9,284.06,65,37,9.56
678,Cape Town,ZA,2021-07-22 23:56:15,-33.9258,18.4232,282.1,82,0,1.34
679,Hilo,US,2021-07-22 23:50:20,19.7297,-155.09,303.86,80,75,7.2
680,Atuona,PF,2021-07-22 23:54:40,-9.8,-139.0333,298.38,73,90,3.85
681,Longyearbyen,SJ,2021-07-22 23:51:34,78.2186,15.6401,278.75,81,43,1.48
682,Lebu,CL,2021-07-22 23:55:06,-37.6167,-73.65,283.12,88,100,2.88
683,Benjamin Constant,BR,2021-07-23 00:01:07,-4.3831,-70.0311,298.07,68,29,0.61
684,Thompson,CA,2021-07-22 23:55:19,55.7435,-97.8558,300.24,54,40,4.12
685,Vaini,TO,2021-07-22 23:51:36,-21.2,-175.2,300.24,78,20,3.09
686,Quelimane,MZ,2021-07-23 00:01:08,-17.8786,36.8883,293.69,95,19,1.53
687,Rikitea,PF,2021-07-22 23:54:48,-23.1203,-134.9692,296.08,73,10,8.25
688,Huarmey,PE,2021-07-23 00:00:37,-10.0681,-78.1522,291.42,82,10,4.34
689,Mataura,NZ,2021-07-22 23:54:34,-46.1927,168.8643,281.19,81,12,1.36
690,Hopelchen,MX,2021-07-23 00:01:08,19.7667,-89.85,306.89,31,0,2.49
691,Bambous Virieux,MU,2021-07-22 23:56:04,-20.3428,57.7575,294.29,73,40,5.14
692,Pinheiral,BR,2021-07-23 00:01:08,-22.5128,-44.0006,285.16,95,0,0.79
693,Punta Arenas,CL,2021-07-22 23:55:12,-53.15,-70.9167,276.21,81,40,2.57
694,Komsomolskiy,UZ,2021-07-22 23:56:06,40.4272,71.7189,296.83,40,1,3.09
695,Mahebourg,MU,2021-07-22 23:51:16,-20.4081,57.7,294.31,73,40,5.14
696,Isangel,VU,2021-07-22 23:55:51,-19.55,169.2667,302.21,70,75,2.57
697,Ostrovnoy,RU,2021-07-22 23:54:33,68.0531,39.5131,277.46,87,48,8.57
698,Avarua,CK,2021-07-22 23:52:03,-21.2078,-159.775,300.18,74,75,5.66
699,Rikitea,PF,2021-07-22 23:54:48,-23.1203,-134.9692,296.08,73,10,8.25
700,Carnarvon,AU,2021-07-22 23:54:38,-24.8667,113.6333,287.19,78,6,1.54
701,Leh,IN,2021-07-23 00:01:09,34.1667,77.5833,287.84,56,30,1.8
702,Busselton,AU,2021-07-22 23:51:29,-33.65,115.3333,285.42,77,100,11.75
703,Mahebourg,MU,2021-07-22 23:51:16,-20.4081,57.7,294.31,73,40,5.14
704,Doctor Juan Leon Mallorquin,PY,2021-07-23 00:01:09,-25.4,-55.2667,288.96,52,0,2.0
705,Tarakan,ID,2021-07-23 00:01:10,3.3,117.6333,299.87,89,40,2.57
706,East London,ZA,2021-07-22 23:54:50,-33.0153,27.9116,284.1,70,99,9.46
707,Challans,FR,2021-07-23 00:01:10,46.8436,-1.8749,296.26,54,56,5.72
708,Thompson,CA,2021-07-22 23:55:19,55.7435,-97.8558,300.24,54,40,4.12
709,Ryde,GB,2021-07-23 00:01:11,50.73,-1.1621,291.86,81,67,0.45
710,Chuy,UY,2021-07-22 23:50:26,-33.6971,-53.4616,283.19,77,88,2.76
711,East London,ZA,2021-07-22 23:54:50,-33.0153,27.9116,284.1,70,99,9.46
712,Ushuaia,AR,2021-07-22 23:54:46,-54.8,-68.3,277.96,60,40,1.03
713,Iqaluit,CA,2021-07-22 23:56:58,63.7506,-68.5145,283.0,93,90,4.92
714,Qaanaaq,GL,2021-07-22 23:55:18,77.484,-69.3632,280.52,65,32,0.76
715,Bredasdorp,ZA,2021-07-22 23:55:30,-34.5322,20.0403,279.77,87,32,1.54
716,Sitka,US,2021-07-22 23:55:39,57.0531,-135.33,287.3,83,100,2.0
717,Upernavik,GL,2021-07-22 23:51:26,72.7868,-56.1549,277.81,95,100,1.55
718,Bethel,US,2021-07-22 23:55:07,41.3712,-73.414,297.87,77,98,1.45
719,Hermanus,ZA,2021-07-22 23:54:45,-34.4187,19.2345,279.76,78,29,4.68
720,Bethel,US,2021-07-22 23:55:07,41.3712,-73.414,297.87,77,98,1.45
721,Jamestown,US,2021-07-22 23:55:20,42.097,-79.2353,294.95,46,1,3.09
722,Umm Lajj,SA,2021-07-23 00:01:11,25.0213,37.2685,302.25,68,7,2.78
723,Albany,US,2021-07-22 23:53:33,42.6001,-73.9662,296.08,59,99,4.89
724,Kaitangata,NZ,2021-07-22 23:55:44,-46.2817,169.8464,283.11,61,7,2.36
725,Divnomorskoye,RU,2021-07-23 00:01:12,44.5011,38.1353,294.62,84,26,1.38
726,Bolu,TR,2021-07-23 00:01:12,40.6667,31.5833,286.44,95,50,0.98
727,Rikitea,PF,2021-07-22 23:54:48,-23.1203,-134.9692,296.08,73,10,8.25
728,Oro Valley,US,2021-07-22 23:58:41,32.3909,-110.9665,309.14,42,98,2.24
729,Ushuaia,AR,2021-07-22 23:54:46,-54.8,-68.3,277.96,60,40,1.03
730,Kharan,PK,2021-07-23 00:01:12,28.5833,65.4167,304.11,34,0,1.96
731,Igarka,RU,2021-07-23 00:01:13,67.4667,86.5833,286.76,85,76,2.92
732,Avarua,CK,2021-07-22 23:52:03,-21.2078,-159.775,300.18,74,75,5.66
733,Horodnytsya,UA,2021-07-23 00:01:13,50.807,27.3168,285.84,87,0,2.13
734,Carnarvon,AU,2021-07-22 23:54:38,-24.8667,113.6333,287.19,78,6,1.54
735,Carira,BR,2021-07-23 00:01:13,-10.3608,-37.7011,290.89,93,19,2.53
736,Lorengau,PG,2021-07-22 23:55:20,-2.0226,147.2712,301.68,76,47,2.49
737,Songjianghe,CN,2021-07-23 00:01:13,42.1859,127.479,297.97,70,100,1.42
738,Gamba,GA,2021-07-23 00:01:14,-2.65,10.0,295.44,75,70,2.57
739,Kavaratti,IN,2021-07-22 23:59:42,10.5669,72.642,300.61,80,100,11.51
740,Teknaf,BD,2021-07-23 00:01:14,20.8624,92.3058,300.48,88,100,8.89
741,San Andres,CO,2021-07-23 00:01:14,12.5847,-81.7006,300.7,83,100,9.56
742,Necochea,AR,2021-07-23 00:01:15,-38.5473,-58.7368,284.2,68,100,4.93
743,Nhulunbuy,AU,2021-07-23 00:01:15,-12.2333,136.7667,299.49,73,20,2.06
744,Busselton,AU,2021-07-22 23:51:29,-33.65,115.3333,285.42,77,100,11.75
745,Yellowknife,CA,2021-07-22 23:55:08,62.456,-114.3525,294.44,64,75,3.6
746,Baft,IR,2021-07-23 00:01:15,29.234,56.6057,294.79,21,0,2.09
747,Muros,ES,2021-07-22 23:56:42,42.7762,-9.0603,291.43,90,79,1.58
748,Dhidhdhoo,MV,2021-07-23 00:01:16,6.8833,73.1,301.35,77,100,8.75
749,Lorengau,PG,2021-07-22 23:55:20,-2.0226,147.2712,301.68,76,47,2.49
750,Bela Vista De Goias,BR,2021-07-23 00:01:16,-16.9728,-48.9533,293.33,42,9,3.36
751,Aklavik,CA,2021-07-22 23:56:16,68.2191,-135.0107,286.61,88,90,7.72
752,Hobart,AU,2021-07-22 23:53:42,-42.8794,147.3294,285.5,64,40,1.79
753,Mataura,NZ,2021-07-22 23:54:34,-46.1927,168.8643,281.19,81,12,1.36
754,Ushuaia,AR,2021-07-22 23:54:46,-54.8,-68.3,277.96,60,40,1.03
755,Kapaa,US,2021-07-22 23:55:11,22.0752,-159.319,303.14,78,77,1.79
756,Ushuaia,AR,2021-07-22 23:54:46,-54.8,-68.3,277.96,60,40,1.03
757,Verkhnevilyuysk,RU,2021-07-23 00:01:17,63.4453,120.3167,293.41,74,64,1.01
758,Torbay,CA,2021-07-22 23:54:54,47.6666,-52.7314,284.58,99,90,5.66
759,Puerto Escondido,MX,2021-07-23 00:01:17,15.85,-97.0667,303.17,71,35,2.28
760,East London,ZA,2021-07-22 23:54:50,-33.0153,27.9116,284.1,70,99,9.46
761,Ahipara,NZ,2021-07-22 23:56:15,-35.1667,173.1667,287.61,72,32,2.93
762,Waipawa,NZ,2021-07-23 00:01:17,-41.4122,175.5153,284.28,66,24,2.36
763,Carndonagh,IE,2021-07-23 00:01:17,55.25,-7.2667,291.94,83,100,1.69
764,Svetlaya,RU,2021-07-23 00:01:18,46.5389,138.3297,298.01,72,66,2.02
765,Amapa,BR,2021-07-22 23:56:21,1.0,-52.0,295.41,99,100,1.05
766,Sinnamary,GF,2021-07-23 00:01:18,5.3833,-52.95,299.66,84,30,4.38
767,Castro,BR,2021-07-22 23:55:15,-24.7911,-50.0119,282.6,56,0,1.61
768,Tuktoyaktuk,CA,2021-07-22 23:55:39,69.4541,-133.0374,284.15,93,90,6.69
769,Mataura,NZ,2021-07-22 23:54:34,-46.1927,168.8643,281.19,81,12,1.36
770,Albany,US,2021-07-22 23:53:33,42.6001,-73.9662,296.08,59,99,4.89
771,Iqaluit,CA,2021-07-22 23:56:58,63.7506,-68.5145,283.0,93,90,4.92
772,Yellowknife,CA,2021-07-22 23:55:08,62.456,-114.3525,294.44,64,75,3.6
773,Vaini,TO,2021-07-22 23:51:36,-21.2,-175.2,300.24,78,20,3.09
774,Bredasdorp,ZA,2021-07-22 23:55:30,-34.5322,20.0403,279.77,87,32,1.54
775,Barrow,US,2021-07-22 23:51:20,71.2906,-156.7887,277.16,81,90,6.17
776,Mataura,NZ,2021-07-22 23:54:34,-46.1927,168.8643,281.19,81,12,1.36
777,Fonte Boa,BR,2021-07-23 00:01:19,-2.4959,-66.2662,298.78,79,95,1.04
778,Salinas,US,2021-07-22 23:59:30,36.6777,-121.6555,303.47,71,3,4.44
779,New Norfolk,AU,2021-07-22 23:55:15,-42.7826,147.0587,285.31,65,65,0.89
780,Hilo,US,2021-07-22 23:50:20,19.7297,-155.09,303.86,80,75,7.2
781,Saldanha,ZA,2021-07-22 23:52:03,-33.0117,17.9442,277.18,74,2,4.2
782,Rikitea,PF,2021-07-22 23:54:48,-23.1203,-134.9692,296.08,73,10,8.25
783,Puerto Ayora,EC,2021-07-22 23:54:43,-0.7393,-90.3518,295.68,88,96,4.02
784,Otane,NZ,2021-07-23 00:01:19,-39.8833,176.6333,285.38,77,98,2.3
785,Rikitea,PF,2021-07-22 23:54:48,-23.1203,-134.9692,296.08,73,10,8.25
786,New Norfolk,AU,2021-07-22 23:55:15,-42.7826,147.0587,285.31,65,65,0.89
787,Bluff,NZ,2021-07-22 23:55:14,-46.6,168.3333,281.37,68,25,5.1
788,Newcastle,AU,2021-07-22 23:58:43,-32.9272,151.7765,287.95,73,0,1.54
789,Saskylakh,RU,2021-07-22 23:55:07,71.9167,114.0833,291.06,70,56,2.9
790,Khatanga,RU,2021-07-22 23:51:17,71.9667,102.5,290.09,64,79,4.63
791,Saldanha,ZA,2021-07-22 23:52:03,-33.0117,17.9442,277.18,74,2,4.2
792,Punta Arenas,CL,2021-07-22 23:55:12,-53.15,-70.9167,276.21,81,40,2.57
793,Selkirk,CA,2021-07-23 00:01:20,50.1436,-96.8845,302.61,99,51,2.24
794,Ulaanbaatar,MN,2021-07-22 23:55:25,47.9077,106.8832,287.22,82,0,1.0
795,Ilulissat,GL,2021-07-22 23:55:29,69.2167,-51.1,277.0,90,99,0.81
796,Monopoli,IT,2021-07-23 00:01:20,40.9559,17.2896,298.01,59,0,4.77
797,Rikitea,PF,2021-07-22 23:54:48,-23.1203,-134.9692,296.08,73,10,8.25
798,Ushuaia,AR,2021-07-22 23:54:46,-54.8,-68.3,277.96,60,40,1.03
799,Husavik,IS,2021-07-22 23:54:52,66.0449,-17.3389,286.1,72,76,3.13
800,Tuatapere,NZ,2021-07-22 23:55:15,-46.1333,167.6833,281.38,70,12,2.48
801,Rapid Valley,US,2021-07-22 23:57:50,44.0625,-103.1463,308.26,38,26,0.89
802,Upernavik,GL,2021-07-22 23:51:26,72.7868,-56.1549,277.81,95,100,1.55
803,Vardo,NO,2021-07-22 23:55:43,70.3705,31.1107,280.44,79,100,13.92
804,Dikson,RU,2021-07-22 23:59:57,73.5069,80.5464,276.74,96,98,8.35
805,Lebu,CL,2021-07-22 23:55:06,-37.6167,-73.65,283.12,88,100,2.88
806,Hermanus,ZA,2021-07-22 23:54:45,-34.4187,19.2345,279.76,78,29,4.68
807,Atuona,PF,2021-07-22 23:54:40,-9.8,-139.0333,298.38,73,90,3.85
808,Galle,LK,2021-07-22 23:59:51,6.0367,80.217,299.66,85,100,7.85
809,Punta Arenas,CL,2021-07-22 23:55:12,-53.15,-70.9167,276.21,81,40,2.57
810,Udankudi,IN,2021-07-23 00:01:21,8.4333,78.0167,300.38,68,100,6.35
811,Sechura,PE,2021-07-22 23:57:55,-5.5569,-80.8222,292.76,72,38,7.51
812,Chokurdakh,RU,2021-07-22 23:54:26,70.6333,147.9167,284.06,50,1,3.9
813,Husavik,IS,2021-07-22 23:54:52,66.0449,-17.3389,286.1,72,76,3.13
814,Hilo,US,2021-07-22 23:50:20,19.7297,-155.09,303.86,80,75,7.2
815,Leningradskiy,RU,2021-07-22 23:55:37,69.3833,178.4167,277.7,82,84,5.05
816,Qaanaaq,GL,2021-07-22 23:55:18,77.484,-69.3632,280.52,65,32,0.76
817,Barrow,US,2021-07-22 23:51:20,71.2906,-156.7887,277.16,81,90,6.17
818,Kavieng,PG,2021-07-22 23:54:37,-2.5744,150.7967,301.13,79,55,5.3
819,Laguna,US,2021-07-22 23:59:40,38.421,-121.4238,312.84,21,1,1.79
820,Garhi Yasin,PK,2021-07-23 00:01:22,27.9069,68.511,307.46,35,14,2.18
821,Castro,BR,2021-07-22 23:55:15,-24.7911,-50.0119,282.6,56,0,1.61
822,Georgetown,MY,2021-07-23 00:00:24,5.4112,100.3354,301.98,81,20,0.45
823,Rikitea,PF,2021-07-22 23:54:48,-23.1203,-134.9692,296.08,73,10,8.25
824,Ponta Do Sol,PT,2021-07-22 23:56:28,32.6667,-17.1,296.5,79,23,2.67
825,Ocnita,RO,2021-07-23 00:01:22,44.9833,25.55,291.96,63,53,1.53
826,Provideniya,RU,2021-07-22 23:54:55,64.3833,-173.3,280.21,81,75,7.0
827,Havre-Saint-Pierre,CA,2021-07-23 00:01:23,50.2334,-63.5986,287.53,87,100,4.03
828,Kaitangata,NZ,2021-07-22 23:55:44,-46.2817,169.8464,283.11,61,7,2.36
829,Albany,US,2021-07-22 23:53:33,42.6001,-73.9662,296.08,59,99,4.89
830,Port Elizabeth,ZA,2021-07-22 23:51:23,-33.918,25.5701,283.31,76,75,3.6
831,Rochester,US,2021-07-22 23:58:00,43.1548,-77.6156,296.27,60,83,0.45
832,Ushuaia,AR,2021-07-22 23:54:46,-54.8,-68.3,277.96,60,40,1.03
833,Bluff,NZ,2021-07-22 23:55:14,-46.6,168.3333,281.37,68,25,5.1
834,Rawson,AR,2021-07-22 23:56:47,-43.3002,-65.1023,286.12,39,100,4.45
835,Vaini,TO,2021-07-22 23:51:36,-21.2,-175.2,300.24,78,20,3.09
836,Arraial Do Cabo,BR,2021-07-22 23:56:24,-22.9661,-42.0278,290.13,94,20,2.06
837,Kapaa,US,2021-07-22 23:55:11,22.0752,-159.319,303.14,78,77,1.79
838,Hajiganj,BD,2021-07-23 00:01:24,23.2511,90.8592,299.05,89,100,8.0
839,Carnarvon,AU,2021-07-22 23:54:38,-24.8667,113.6333,287.19,78,6,1.54
840,Port Elizabeth,ZA,2021-07-22 23:51:23,-33.918,25.5701,283.31,76,75,3.6
841,Barcelos,PT,2021-07-23 00:01:24,41.5388,-8.6151,291.64,96,63,0.92
842,Cape Town,ZA,2021-07-22 23:56:15,-33.9258,18.4232,282.1,82,0,1.34
843,Buin,CL,2021-07-23 00:01:24,-33.7333,-70.75,291.89,48,81,0.87
844,Kalabo,ZM,2021-07-23 00:01:25,-14.97,22.6814,286.6,24,54,5.14
845,Pevek,RU,2021-07-22 23:55:05,69.7008,170.3133,278.4,71,56,2.65
846,Kapaa,US,2021-07-22 23:55:11,22.0752,-159.319,303.14,78,77,1.79
847,East London,ZA,2021-07-22 23:54:50,-33.0153,27.9116,284.1,70,99,9.46
848,Romblon,PH,2021-07-23 00:01:25,12.5751,122.2708,301.27,81,100,13.52
849,Miguel Hidalgo,MX,2021-07-22 23:58:56,19.4225,-99.2028,290.14,75,76,0.89
850,Severo-Kurilsk,RU,2021-07-22 23:54:53,50.6789,156.125,286.38,84,61,1.29
851,Albany,US,2021-07-22 23:53:33,42.6001,-73.9662,296.08,59,99,4.89
852,Rikitea,PF,2021-07-22 23:54:48,-23.1203,-134.9692,296.08,73,10,8.25
853,Bethel,US,2021-07-22 23:55:07,41.3712,-73.414,297.87,77,98,1.45
854,Albany,US,2021-07-22 23:53:33,42.6001,-73.9662,296.08,59,99,4.89
855,Ilulissat,GL,2021-07-22 23:55:29,69.2167,-51.1,277.0,90,99,0.81
856,Dwarka,IN,2021-07-22 23:55:31,22.2394,68.9678,301.28,85,100,8.48
857,Port Alfred,ZA,2021-07-22 23:54:56,-33.5906,26.891,283.98,72,96,8.95
858,Ust-Ishim,RU,2021-07-23 00:01:26,57.6935,71.1665,291.83,71,39,3.53
859,Saryozek,KZ,2021-07-23 00:01:26,44.3583,77.9753,292.58,58,3,2.87
860,Antofagasta,CL,2021-07-22 23:56:25,-23.65,-70.4,286.75,81,30,0.79
861,Nikolskoye,RU,2021-07-22 23:55:17,59.7035,30.7861,290.09,75,97,2.39
862,Puerto Ayora,EC,2021-07-22 23:54:43,-0.7393,-90.3518,295.68,88,96,4.02
863,Dingle,PH,2021-07-22 23:54:36,10.9995,122.6711,300.57,80,100,7.83
864,Tahta,EG,2021-07-23 00:01:26,26.7693,31.5021,304.62,30,2,4.43
865,Vieste,IT,2021-07-23 00:01:27,41.8825,16.175,297.99,51,0,2.61
866,Broken Hill,AU,2021-07-22 23:58:00,-31.95,141.4333,279.99,93,90,5.14
867,Jamestown,US,2021-07-22 23:55:20,42.097,-79.2353,294.95,46,1,3.09
868,Hilo,US,2021-07-22 23:50:20,19.7297,-155.09,303.86,80,75,7.2
869,Avera,US,2021-07-22 23:57:04,33.194,-82.5271,303.88,68,70,1.7
870,Hamilton,US,2021-07-22 23:54:52,39.1834,-84.5333,299.58,59,72,0.45
871,Kahului,US,2021-07-22 23:50:43,20.8947,-156.47,303.16,63,40,11.83
872,Mount Gambier,AU,2021-07-22 23:52:58,-37.8333,140.7667,280.1,87,90,4.63
873,Chuy,UY,2021-07-22 23:50:26,-33.6971,-53.4616,283.19,77,88,2.76
874,Castro,BR,2021-07-22 23:55:15,-24.7911,-50.0119,282.6,56,0,1.61
875,Rikitea,PF,2021-07-22 23:54:48,-23.1203,-134.9692,296.08,73,10,8.25
876,Ormara,PK,2021-07-23 00:01:27,25.2088,64.6357,301.53,84,69,1.85
877,Dingle,PH,2021-07-22 23:54:36,10.9995,122.6711,300.57,80,100,7.83
878,Punta Arenas,CL,2021-07-22 23:55:12,-53.15,-70.9167,276.21,81,40,2.57
879,Pierre,US,2021-07-22 23:57:05,44.3683,-100.351,312.03,32,5,1.34
880,Fortuna,US,2021-07-22 23:57:20,40.5982,-124.1573,305.64,65,20,1.34
881,Pevek,RU,2021-07-22 23:55:05,69.7008,170.3133,278.4,71,56,2.65
882,Kahului,US,2021-07-22 23:50:43,20.8947,-156.47,303.16,63,40,11.83
883,Mahon,ES,2021-07-23 00:01:28,39.8885,4.2658,297.46,83,0,2.06
884,Rikitea,PF,2021-07-22 23:54:48,-23.1203,-134.9692,296.08,73,10,8.25
885,Paamiut,GL,2021-07-22 23:52:21,61.994,-49.6678,278.48,97,92,1.92
886,Thompson,CA,2021-07-22 23:55:19,55.7435,-97.8558,300.24,54,40,4.12
887,Mataura,NZ,2021-07-22 23:54:34,-46.1927,168.8643,281.19,81,12,1.36
888,Ponta Do Sol,PT,2021-07-22 23:56:28,32.6667,-17.1,296.5,79,23,2.67
889,Port Alfred,ZA,2021-07-22 23:54:56,-33.5906,26.891,283.98,72,96,8.95
890,Lorengau,PG,2021-07-22 23:55:20,-2.0226,147.2712,301.68,76,47,2.49
891,Mataura,NZ,2021-07-22 23:54:34,-46.1927,168.8643,281.19,81,12,1.36
892,Mataura,NZ,2021-07-22 23:54:34,-46.1927,168.8643,281.19,81,12,1.36
893,Ostrovnoy,RU,2021-07-22 23:54:33,68.0531,39.5131,277.46,87,48,8.57
894,Athabasca,CA,2021-07-23 00:01:29,54.7169,-113.2854,292.35,39,99,7.03
895,Bredasdorp,ZA,2021-07-22 23:55:30,-34.5322,20.0403,279.77,87,32,1.54
896,Kelo,TD,2021-07-22 23:57:11,9.3086,15.8066,295.4,92,100,2.02
897,Punta Arenas,CL,2021-07-22 23:55:12,-53.15,-70.9167,276.21,81,40,2.57
898,Cape Town,ZA,2021-07-22 23:56:15,-33.9258,18.4232,282.1,82,0,1.34
899,Albany,US,2021-07-22 23:53:33,42.6001,-73.9662,296.08,59,99,4.89
900,Upernavik,GL,2021-07-22 23:51:26,72.7868,-56.1549,277.81,95,100,1.55
901,Dikson,RU,2021-07-22 23:59:57,73.5069,80.5464,276.74,96,98,8.35
902,Praia Da Vitoria,PT,2021-07-22 23:55:45,38.7333,-27.0667,293.29,77,40,4.55
903,Aswan,EG,2021-07-22 23:56:35,24.0934,32.907,307.76,21,0,4.12
904,Matamoros,MX,2021-07-23 00:01:29,25.5333,-103.25,301.54,47,95,3.96
905,Cape Town,ZA,2021-07-22 23:56:15,-33.9258,18.4232,282.1,82,0,1.34
906,Khatanga,RU,2021-07-22 23:51:17,71.9667,102.5,290.09,64,79,4.63
907,Kavieng,PG,2021-07-22 23:54:37,-2.5744,150.7967,301.13,79,55,5.3
908,Saskylakh,RU,2021-07-22 23:55:07,71.9167,114.0833,291.06,70,56,2.9
909,Sibolga,ID,2021-07-23 00:01:30,1.7427,98.7792,298.08,81,100,1.19
910,Nanortalik,GL,2021-07-22 23:59:58,60.1432,-45.2371,279.95,90,87,3.57
911,Grand Gaube,MU,2021-07-23 00:01:30,-20.0064,57.6608,293.92,67,47,1.79
912,Tuktoyaktuk,CA,2021-07-22 23:55:39,69.4541,-133.0374,284.15,93,90,6.69
913,Saldanha,ZA,2021-07-22 23:52:03,-33.0117,17.9442,277.18,74,2,4.2
914,Champagnole,FR,2021-07-23 00:01:30,46.7445,5.9135,291.24,92,15,1.72
915,Faanui,PF,2021-07-22 23:51:30,-16.4833,-151.75,298.72,68,36,6.92
916,Cabo San Lucas,MX,2021-07-22 23:53:32,22.8909,-109.9124,311.21,66,2,4.22
917,Khatanga,RU,2021-07-22 23:51:17,71.9667,102.5,290.09,64,79,4.63
918,Barrow,US,2021-07-22 23:51:20,71.2906,-156.7887,277.16,81,90,6.17
919,Castro,BR,2021-07-22 23:55:15,-24.7911,-50.0119,282.6,56,0,1.61
920,China,MX,2021-07-23 00:01:31,25.7,-99.2333,307.8,39,69,10.82
921,East London,ZA,2021-07-22 23:54:50,-33.0153,27.9116,284.1,70,99,9.46
922,Albany,US,2021-07-22 23:53:33,42.6001,-73.9662,296.08,59,99,4.89
923,Punta Arenas,CL,2021-07-22 23:55:12,-53.15,-70.9167,276.21,81,40,2.57
924,Bani Walid,LY,2021-07-23 00:01:31,31.7566,13.9942,295.58,77,0,1.79
925,Pangnirtung,CA,2021-07-22 23:55:52,66.1451,-65.7125,280.79,75,98,2.59
926,Punta Arenas,CL,2021-07-22 23:55:12,-53.15,-70.9167,276.21,81,40,2.57
927,Tasiilaq,GL,2021-07-22 23:55:27,65.6145,-37.6368,277.81,97,100,1.13
928,Norman Wells,CA,2021-07-22 23:55:23,65.282,-126.8329,299.17,50,40,6.17
929,Port Alfred,ZA,2021-07-22 23:54:56,-33.5906,26.891,283.98,72,96,8.95
930,El Tambo,CO,2021-07-23 00:01:32,1.4181,-77.3968,286.4,76,97,2.64
931,Verkhnevilyuysk,RU,2021-07-23 00:01:17,63.4453,120.3167,293.41,74,64,1.01
932,East London,ZA,2021-07-22 23:54:50,-33.0153,27.9116,284.1,70,99,9.46
933,Albany,US,2021-07-22 23:53:33,42.6001,-73.9662,296.08,59,99,4.89
934,Mataura,NZ,2021-07-22 23:54:34,-46.1927,168.8643,281.19,81,12,1.36
935,Hambantota,LK,2021-07-22 23:55:45,6.1241,81.1185,299.77,79,100,9.15
936,Artesia,US,2021-07-23 00:01:32,33.8658,-118.0831,311.33,63,1,2.24
937,Arraial Do Cabo,BR,2021-07-22 23:56:24,-22.9661,-42.0278,290.13,94,20,2.06
938,Silver City,US,2021-07-23 00:01:33,32.7701,-108.2803,293.16,81,90,1.79
939,Hermanus,ZA,2021-07-22 23:54:45,-34.4187,19.2345,279.76,78,29,4.68
940,Hondo,JP,2021-07-23 00:01:33,32.45,130.2,299.25,80,100,4.06
941,Cairns,AU,2021-07-23 00:01:33,-16.9167,145.7667,299.79,70,47,1.03
942,Saint George,US,2021-07-22 23:54:45,37.1041,-113.5841,307.83,38,1,2.68
943,Mataura,NZ,2021-07-22 23:54:34,-46.1927,168.8643,281.19,81,12,1.36
944,Rikitea,PF,2021-07-22 23:54:48,-23.1203,-134.9692,296.08,73,10,8.25
945,Barmer,IN,2021-07-23 00:01:34,25.75,71.3833,301.75,73,86,6.2
946,Victoria,HK,2021-07-22 23:54:58,22.2855,114.1577,303.33,84,97,2.24
947,Tevaitoa,PF,2021-07-23 00:01:34,-16.7833,-151.5,298.52,66,36,6.72
948,Saint-Philippe,RE,2021-07-22 23:55:14,-21.3585,55.7679,291.92,76,43,5.89
949,Flinders,AU,2021-07-22 23:56:51,-34.5833,150.8552,286.51,65,94,3.13
950,Bengkulu,ID,2021-07-22 23:51:11,-3.8004,102.2655,297.32,84,69,1.52
951,Tautira,PF,2021-07-22 23:55:50,-17.7333,-149.15,301.16,69,39,5.09
952,Khatanga,RU,2021-07-22 23:51:17,71.9667,102.5,290.09,64,79,4.63
953,Kapaa,US,2021-07-22 23:55:11,22.0752,-159.319,303.14,78,77,1.79
954,Saint-Philippe,RE,2021-07-22 23:55:14,-21.3585,55.7679,291.92,76,43,5.89
955,Shimoda,JP,2021-07-23 00:01:35,34.6667,138.95,303.21,72,22,2.66
956,Hermanus,ZA,2021-07-22 23:54:45,-34.4187,19.2345,279.76,78,29,4.68
957,Bluff,NZ,2021-07-22 23:55:14,-46.6,168.3333,281.37,68,25,5.1
958,Ushuaia,AR,2021-07-22 23:54:46,-54.8,-68.3,277.96,60,40,1.03
959,Kaitangata,NZ,2021-07-22 23:55:44,-46.2817,169.8464,283.11,61,7,2.36
960,Hithadhoo,MV,2021-07-22 23:56:09,-0.6,73.0833,299.63,81,100,4.48
961,Upernavik,GL,2021-07-22 23:51:26,72.7868,-56.1549,277.81,95,100,1.55
962,Ushuaia,AR,2021-07-22 23:54:46,-54.8,-68.3,277.96,60,40,1.03
963,Camacha,PT,2021-07-22 23:56:33,33.0833,-16.3333,294.57,83,40,8.23
964,Yerbogachen,RU,2021-07-22 23:54:40,61.2767,108.0108,291.96,71,96,1.06
965,Kodinsk,RU,2021-07-23 00:01:35,58.6881,99.1844,288.99,87,7,1.38
966,Cape Town,ZA,2021-07-22 23:56:15,-33.9258,18.4232,282.1,82,0,1.34
967,Hilo,US,2021-07-22 23:50:20,19.7297,-155.09,303.86,80,75,7.2
968,Thompson,CA,2021-07-22 23:55:19,55.7435,-97.8558,300.24,54,40,4.12
969,Vaini,TO,2021-07-22 23:51:36,-21.2,-175.2,300.24,78,20,3.09
970,Villazon,BO,2021-07-23 00:01:36,-22.0866,-65.5942,282.93,23,0,2.47
971,Coihaique,CL,2021-07-22 23:57:54,-45.5752,-72.0662,276.58,93,100,2.78
972,Mount Isa,AU,2021-07-23 00:00:39,-20.7333,139.5,296.02,27,65,4.63
973,Muros,ES,2021-07-22 23:56:42,42.7762,-9.0603,291.43,90,79,1.58
974,Cherskiy,RU,2021-07-22 23:57:09,68.75,161.3,287.44,77,99,1.55
975,Lompoc,US,2021-07-22 23:54:57,34.6391,-120.4579,301.8,74,75,7.2
976,East London,ZA,2021-07-22 23:54:50,-33.0153,27.9116,284.1,70,99,9.46
977,Ushuaia,AR,2021-07-22 23:54:46,-54.8,-68.3,277.96,60,40,1.03
978,Albany,US,2021-07-22 23:53:33,42.6001,-73.9662,296.08,59,99,4.89
979,Socol,RO,2021-07-23 00:01:37,44.8608,21.3703,288.81,88,3,0.74
980,Thompson,CA,2021-07-22 23:55:19,55.7435,-97.8558,300.24,54,40,4.12
981,Floro,NO,2021-07-23 00:00:36,61.5996,5.0328,285.13,94,58,2.06
982,Torbay,CA,2021-07-22 23:54:54,47.6666,-52.7314,284.58,99,90,5.66
983,Rikitea,PF,2021-07-22 23:54:48,-23.1203,-134.9692,296.08,73,10,8.25
984,Faridpur,BD,2021-07-23 00:01:37,23.6,89.8333,301.15,89,91,8.22
985,Bahia Honda,CU,2021-07-23 00:01:37,22.9036,-83.1592,301.6,77,2,4.32
986,Port Alfred,ZA,2021-07-22 23:54:56,-33.5906,26.891,283.98,72,96,8.95
987,Upernavik,GL,2021-07-22 23:51:26,72.7868,-56.1549,277.81,95,100,1.55
988,Hermanus,ZA,2021-07-22 23:54:45,-34.4187,19.2345,279.76,78,29,4.68
989,Busselton,AU,2021-07-22 23:51:29,-33.65,115.3333,285.42,77,100,11.75
990,Korla,CN,2021-07-23 00:01:38,41.7597,86.1469,303.64,21,96,2.05
991,Srednekolymsk,RU,2021-07-22 23:59:49,67.45,153.6833,291.89,43,21,5.19
992,Thompson,CA,2021-07-22 23:55:19,55.7435,-97.8558,300.24,54,40,4.12
993,Rikitea,PF,2021-07-22 23:54:48,-23.1203,-134.9692,296.08,73,10,8.25
994,Port Alfred,ZA,2021-07-22 23:54:56,-33.5906,26.891,283.98,72,96,8.95
995,Kodiak,US,2021-07-22 23:54:32,57.79,-152.4072,284.51,98,100,6.81
996,Westport,US,2021-07-23 00:01:38,41.1415,-73.3579,298.76,74,98,0.45
997,Arkhangelsk,RU,2021-07-23 00:01:39,64.5401,40.5433,279.21,100,20,0.0
998,Kingaroy,AU,2021-07-22 23:57:53,-26.5333,151.8333,285.17,94,90,2.57
999,Iqaluit,CA,2021-07-22 23:56:58,63.7506,-68.5145,283.0,93,90,4.92
1000,Albany,US,2021-07-22 23:53:33,42.6001,-73.9662,296.08,59,99,4.89
1001,Mareeba,AU,2021-07-22 23:55:07,-17.0,145.4333,297.22,77,44,1.02
1002,Barrow,US,2021-07-22 23:51:20,71.2906,-156.7887,277.16,81,90,6.17
1003,Atuona,PF,2021-07-22 23:54:40,-9.8,-139.0333,298.38,73,90,3.85
1004,Toora-Khem,RU,2021-07-23 00:01:39,52.4675,96.11,289.2,88,92,0.46
1005,Albany,US,2021-07-22 23:53:33,42.6001,-73.9662,296.08,59,99,4.89
1006,Cape Town,ZA,2021-07-22 23:56:15,-33.9258,18.4232,282.1,82,0,1.34
1007,Punta Arenas,CL,2021-07-22 23:55:12,-53.15,-70.9167,276.21,81,40,2.57
1008,Qasigiannguit,GL,2021-07-23 00:01:40,68.8193,-51.1922,280.29,94,100,1.3
1009,Faanui,PF,2021-07-22 23:51:30,-16.4833,-151.75,298.72,68,36,6.92
1010,Hithadhoo,MV,2021-07-22 23:56:09,-0.6,73.0833,299.63,81,100,4.48
1011,Buta,CD,2021-07-23 00:01:40,2.7858,24.73,294.47,87,74,1.02
1012,Kapaa,US,2021-07-22 23:55:11,22.0752,-159.319,303.14,78,77,1.79
1013,Klaksvik,FO,2021-07-22 23:57:28,62.2266,-6.589,282.66,91,81,4.44
1014,Gat,IL,2021-07-22 23:54:34,31.61,34.7642,298.1,100,0,1.85
1015,Sitges,ES,2021-07-23 00:01:41,41.2351,1.8119,301.7,60,0,1.9
1016,Vuktyl,RU,2021-07-23 00:01:41,63.8567,57.3094,281.59,59,1,0.83
1017,Ushuaia,AR,2021-07-22 23:54:46,-54.8,-68.3,277.96,60,40,1.03
1018,Chuy,UY,2021-07-22 23:50:26,-33.6971,-53.4616,283.19,77,88,2.76
1019,Cedar City,US,2021-07-23 00:00:28,37.6775,-113.0619,291.69,82,90,2.57
1020,Damme,DE,2021-07-23 00:01:41,52.5167,8.2,287.78,88,0,1.59
1021,Kaitangata,NZ,2021-07-22 23:55:44,-46.2817,169.8464,283.11,61,7,2.36
1022,Tuktoyaktuk,CA,2021-07-22 23:55:39,69.4541,-133.0374,284.15,93,90,6.69
1023,Umm Lajj,SA,2021-07-23 00:01:11,25.0213,37.2685,302.25,68,7,2.78
1024,Tuktoyaktuk,CA,2021-07-22 23:55:39,69.4541,-133.0374,284.15,93,90,6.69
1025,Hermanus,ZA,2021-07-22 23:54:45,-34.4187,19.2345,279.76,78,29,4.68
1026,Kapaa,US,2021-07-22 23:55:11,22.0752,-159.319,303.14,78,77,1.79
1027,Albany,US,2021-07-22 23:53:33,42.6001,-73.9662,296.08,59,99,4.89
1028,Kaitangata,NZ,2021-07-22 23:55:44,-46.2817,169.8464,283.11,61,7,2.36
1029,Iwanai,JP,2021-07-23 00:01:42,42.9744,140.5089,300.67,66,94,1.18
1030,Pishin,PK,2021-07-23 00:01:42,30.5803,66.9961,297.08,48,6,2.14
1031,Sola,VU,2021-07-22 23:56:40,-13.8833,167.55,301.52,79,40,0.0
1032,Butaritari,KI,2021-07-22 23:54:32,3.0707,172.7902,301.83,75,48,7.17
1033,Hilo,US,2021-07-22 23:50:20,19.7297,-155.09,303.86,80,75,7.2
1034,Severo-Kurilsk,RU,2021-07-22 23:54:53,50.6789,156.125,286.38,84,61,1.29
1035,Punta Arenas,CL,2021-07-22 23:55:12,-53.15,-70.9167,276.21,81,40,2.57
1036,Yellowknife,CA,2021-07-22 23:55:08,62.456,-114.3525,294.44,64,75,3.6
1037,Ossora,RU,2021-07-23 00:01:43,59.2353,163.0719,289.65,73,96,1.8
1038,Fengzhen,CN,2021-07-23 00:01:43,40.4394,113.1536,291.8,79,100,3.28
1039,Yellowknife,CA,2021-07-22 23:55:08,62.456,-114.3525,294.44,64,75,3.6
1040,Ushuaia,AR,2021-07-22 23:54:46,-54.8,-68.3,277.96,60,40,1.03
1041,Hilo,US,2021-07-22 23:50:20,19.7297,-155.09,303.86,80,75,7.2
1042,Butaritari,KI,2021-07-22 23:54:32,3.0707,172.7902,301.83,75,48,7.17
1043,Mar Del Plata,AR,2021-07-22 23:55:00,-38.0023,-57.5575,287.09,76,0,1.34
1044,Faanui,PF,2021-07-22 23:51:30,-16.4833,-151.75,298.72,68,36,6.92
1045,Hermanus,ZA,2021-07-22 23:54:45,-34.4187,19.2345,279.76,78,29,4.68
1046,Tobermory,CA,2021-07-23 00:01:44,45.2501,-81.6665,293.88,70,77,5.17
1047,Narsaq,GL,2021-07-23 00:00:11,60.9167,-46.05,282.27,94,75,2.77
1048,Port Alfred,ZA,2021-07-22 23:54:56,-33.5906,26.891,283.98,72,96,8.95
1049,Turayf,SA,2021-07-23 00:01:44,31.6725,38.6637,297.17,39,0,6.19
1050,Kapaa,US,2021-07-22 23:55:11,22.0752,-159.319,303.14,78,77,1.79
1051,Salinopolis,BR,2021-07-23 00:01:45,-0.6136,-47.3561,299.49,83,40,5.52
1052,Faanui,PF,2021-07-22 23:51:30,-16.4833,-151.75,298.72,68,36,6.92
1053,Port Alfred,ZA,2021-07-22 23:54:56,-33.5906,26.891,283.98,72,96,8.95
1054,Sao Gabriel Da Cachoeira,BR,2021-07-23 00:01:45,-0.1303,-67.0892,296.2,94,61,0.82
1055,Cozumel,MX,2021-07-22 23:55:38,20.5083,-86.9458,303.77,85,0,1.79
1056,Hibbing,US,2021-07-23 00:01:46,47.4272,-92.9377,299.85,69,90,4.63
1057,Naze,JP,2021-07-22 23:56:45,28.3667,129.4833,298.66,90,100,11.58
1058,Faanui,PF,2021-07-22 23:51:30,-16.4833,-151.75,298.72,68,36,6.92
1059,Yuxia,CN,2021-07-23 00:01:46,34.0615,108.6291,299.26,80,90,1.73
1060,Nemuro,JP,2021-07-23 00:01:46,43.3236,145.575,297.39,89,94,5.11
1061,Nanortalik,GL,2021-07-22 23:59:58,60.1432,-45.2371,279.95,90,87,3.57
1062,Upernavik,GL,2021-07-22 23:51:26,72.7868,-56.1549,277.81,95,100,1.55
1063,Cape Town,ZA,2021-07-22 23:56:15,-33.9258,18.4232,282.1,82,0,1.34
1064,Hermanus,ZA,2021-07-22 23:54:45,-34.4187,19.2345,279.76,78,29,4.68
1065,Santa Cruz Del Sur,CU,2021-07-23 00:01:47,20.7147,-77.9956,301.13,73,8,6.36
1066,Rikitea,PF,2021-07-22 23:54:48,-23.1203,-134.9692,296.08,73,10,8.25
1067,Clyde River,CA,2021-07-22 23:59:40,70.4692,-68.5914,276.28,100,90,3.6
1068,Novo Aripuana,BR,2021-07-23 00:01:47,-5.1206,-60.3797,301.79,57,86,0.93
1069,Jamestown,US,2021-07-22 23:55:20,42.097,-79.2353,294.95,46,1,3.09
1070,Ingham,US,2021-07-23 00:01:47,42.6,-84.3833,297.86,65,1,3.6
1071,Mataura,NZ,2021-07-22 23:54:34,-46.1927,168.8643,281.19,81,12,1.36
1072,Bredasdorp,ZA,2021-07-22 23:55:30,-34.5322,20.0403,279.77,87,32,1.54
1073,Bailieborough,IE,2021-07-23 00:01:48,53.9167,-6.9667,290.61,88,100,1.88
1074,Mataura,NZ,2021-07-22 23:54:34,-46.1927,168.8643,281.19,81,12,1.36
1075,Bluff,NZ,2021-07-22 23:55:14,-46.6,168.3333,281.37,68,25,5.1
1076,Ushuaia,AR,2021-07-22 23:54:46,-54.8,-68.3,277.96,60,40,1.03
1077,Rikitea,PF,2021-07-22 23:54:48,-23.1203,-134.9692,296.08,73,10,8.25
1078,Nabire,ID,2021-07-22 23:57:16,-3.3667,135.4833,297.38,91,97,0.65
1079,Baft,IR,2021-07-23 00:01:15,29.234,56.6057,294.79,21,0,2.09
1080,Eureka,US,2021-07-22 23:54:41,40.8021,-124.1637,293.82,69,14,2.68
1081,Punta Arenas,CL,2021-07-22 23:55:12,-53.15,-70.9167,276.21,81,40,2.57
1082,Constitucion,CL,2021-07-22 23:51:55,-35.3333,-72.4167,285.12,86,100,4.45
1083,Yellowknife,CA,2021-07-22 23:55:08,62.456,-114.3525,294.44,64,75,3.6
1084,Busselton,AU,2021-07-22 23:51:29,-33.65,115.3333,285.42,77,100,11.75
1085,Nuuk,GL,2021-07-23 00:01:48,64.1835,-51.7216,278.49,100,75,4.12
1086,Kedrovyy,RU,2021-07-22 23:56:23,56.1667,91.8167,285.38,71,3,2.17
1087,Kununurra,AU,2021-07-22 23:56:37,-15.7667,128.7333,292.14,55,49,0.0
1088,East London,ZA,2021-07-22 23:54:50,-33.0153,27.9116,284.1,70,99,9.46
1089,Atuona,PF,2021-07-22 23:54:40,-9.8,-139.0333,298.38,73,90,3.85
1090,Thompson,CA,2021-07-22 23:55:19,55.7435,-97.8558,300.24,54,40,4.12
1091,Atuona,PF,2021-07-22 23:54:40,-9.8,-139.0333,298.38,73,90,3.85
1092,Bathsheba,BB,2021-07-22 23:50:52,13.2167,-59.5167,301.49,78,75,7.2
1093,Avarua,CK,2021-07-22 23:52:03,-21.2078,-159.775,300.18,74,75,5.66
1094,Butaritari,KI,2021-07-22 23:54:32,3.0707,172.7902,301.83,75,48,7.17
1095,Avarua,CK,2021-07-22 23:52:03,-21.2078,-159.775,300.18,74,75,5.66
1096,Punta Arenas,CL,2021-07-22 23:55:12,-53.15,-70.9167,276.21,81,40,2.57
1097,Ushuaia,AR,2021-07-22 23:54:46,-54.8,-68.3,277.96,60,40,1.03
1098,Puerto Ayora,EC,2021-07-22 23:54:43,-0.7393,-90.3518,295.68,88,96,4.02
1099,Yazykovo,RU,2021-07-23 00:01:49,55.2199,56.1353,286.78,96,98,3.79
1100,Tuatapere,NZ,2021-07-22 23:55:15,-46.1333,167.6833,281.38,70,12,2.48
1101,Victoria,HK,2021-07-22 23:54:58,22.2855,114.1577,303.33,84,97,2.24
1102,Pisco,PE,2021-07-22 23:55:03,-13.7,-76.2167,290.18,77,90,5.66
1103,Barrow,US,2021-07-22 23:51:20,71.2906,-156.7887,277.16,81,90,6.17
1104,Roald,NO,2021-07-22 23:55:58,62.5833,6.1333,285.93,87,90,3.09
1105,Busselton,AU,2021-07-22 23:51:29,-33.65,115.3333,285.42,77,100,11.75
1106,Ulladulla,AU,2021-07-22 23:57:21,-35.35,150.4667,286.41,56,99,2.26
1107,Mataura,NZ,2021-07-22 23:54:34,-46.1927,168.8643,281.19,81,12,1.36
1108,Kapaa,US,2021-07-22 23:55:11,22.0752,-159.319,303.14,78,77,1.79
1109,Enshi,CN,2021-07-23 00:01:50,30.3,109.4833,297.95,93,60,0.5
1110,Hobart,AU,2021-07-22 23:53:42,-42.8794,147.3294,285.5,64,40,1.79
1111,Nikolskoye,RU,2021-07-22 23:55:17,59.7035,30.7861,290.09,75,97,2.39
1112,Yellowknife,CA,2021-07-22 23:55:08,62.456,-114.3525,294.44,64,75,3.6
1113,Busselton,AU,2021-07-22 23:51:29,-33.65,115.3333,285.42,77,100,11.75
1114,Broome,US,2021-07-22 23:55:34,42.2506,-75.833,293.47,60,49,1.94
1115,Tra Vinh,VN,2021-07-23 00:01:51,9.9347,106.3453,299.35,86,96,3.0
1116,Lebu,CL,2021-07-22 23:55:06,-37.6167,-73.65,283.12,88,100,2.88
1117,Montrose,US,2021-07-23 00:01:51,38.4166,-108.2673,295.34,73,97,3.87
1118,Sholapur,IN,2021-07-23 00:01:51,17.6833,75.9167,295.55,92,100,5.86
1119,Jamestown,US,2021-07-22 23:55:20,42.097,-79.2353,294.95,46,1,3.09
1120,Port Alfred,ZA,2021-07-22 23:54:56,-33.5906,26.891,283.98,72,96,8.95
1121,Rumford,US,2021-07-23 00:01:51,44.5537,-70.5509,293.28,76,61,1.96
1122,Verkhnevilyuysk,RU,2021-07-23 00:01:17,63.4453,120.3167,293.41,74,64,1.01
1123,Kendari,ID,2021-07-23 00:01:52,-3.945,122.4989,297.36,89,89,0.95
1124,Kurilsk,RU,2021-07-23 00:01:52,45.2333,147.8833,292.66,70,70,3.26
1125,Cherskiy,RU,2021-07-22 23:57:09,68.75,161.3,287.44,77,99,1.55
1126,Bluff,NZ,2021-07-22 23:55:14,-46.6,168.3333,281.37,68,25,5.1
1127,Bambous Virieux,MU,2021-07-22 23:56:04,-20.3428,57.7575,294.29,73,40,5.14
1128,Bluff,NZ,2021-07-22 23:55:14,-46.6,168.3333,281.37,68,25,5.1
1129,Hithadhoo,MV,2021-07-22 23:56:09,-0.6,73.0833,299.63,81,100,4.48
1130,Grand Forks,US,2021-07-23 00:01:52,47.9417,-97.4337,304.11,48,20,2.57
1131,Carnarvon,AU,2021-07-22 23:54:38,-24.8667,113.6333,287.19,78,6,1.54
1132,Caravelas,BR,2021-07-22 23:55:40,-17.7125,-39.2481,294.81,65,13,3.69
1133,Porto Belo,BR,2021-07-23 00:01:53,-27.1578,-48.5531,290.46,55,0,2.89
1134,Rocha,UY,2021-07-23 00:01:53,-34.4833,-54.3333,282.82,76,86,3.05
1135,Craig,US,2021-07-23 00:01:53,40.5153,-107.5464,303.7,34,87,4.65
1136,Kuybyshevo,RU,2021-07-23 00:01:54,47.8123,38.9073,292.73,72,100,5.16
1137,Kotelnikovo,RU,2021-07-23 00:01:54,47.6317,43.1461,293.71,88,100,4.62
1138,Lompoc,US,2021-07-22 23:54:57,34.6391,-120.4579,301.8,74,75,7.2
1139,Hauterive,FR,2021-07-23 00:01:54,46.0901,3.4459,291.57,86,0,1.27
1140,Vila Franca Do Campo,PT,2021-07-22 23:55:59,37.7167,-25.4333,291.38,80,48,2.08
1141,Aksu,CN,2021-07-23 00:01:55,41.1231,80.2644,293.8,65,5,3.14
1142,Kuntaur,GM,2021-07-23 00:01:55,13.6667,-14.8833,299.76,73,34,5.15
1143,Shunyi,CN,2021-07-23 00:01:55,40.125,116.6453,298.12,83,0,1.0
1144,Wattegama,LK,2021-07-23 00:01:56,6.7989,81.4808,298.75,70,100,5.5
1145,Tasiilaq,GL,2021-07-22 23:55:27,65.6145,-37.6368,277.81,97,100,1.13
1146,Bethel,US,2021-07-22 23:55:07,41.3712,-73.414,297.87,77,98,1.45
1147,Georgetown,MY,2021-07-23 00:00:24,5.4112,100.3354,301.98,81,20,0.45
1148,Albany,US,2021-07-22 23:53:33,42.6001,-73.9662,296.08,59,99,4.89
1149,East London,ZA,2021-07-22 23:54:50,-33.0153,27.9116,284.1,70,99,9.46
1150,Caravelas,BR,2021-07-22 23:55:40,-17.7125,-39.2481,294.81,65,13,3.69
1151,Shebalino,RU,2021-07-23 00:01:56,51.2917,85.6772,289.63,99,100,1.01
1152,Rikitea,PF,2021-07-22 23:54:48,-23.1203,-134.9692,296.08,73,10,8.25
1153,San Cristobal,VE,2021-07-22 23:59:45,7.7669,-72.225,296.25,98,95,1.83
1154,Norman Wells,CA,2021-07-22 23:55:23,65.282,-126.8329,299.17,50,40,6.17
1155,Menongue,AO,2021-07-23 00:01:57,-14.6585,17.691,281.68,32,97,2.05
1156,Rikitea,PF,2021-07-22 23:54:48,-23.1203,-134.9692,296.08,73,10,8.25
1157,Mataura,NZ,2021-07-22 23:54:34,-46.1927,168.8643,281.19,81,12,1.36
1158,Oktyabrskoye,RU,2021-07-23 00:01:57,43.0645,44.7417,292.23,93,96,3.0
1159,Lebu,CL,2021-07-22 23:55:06,-37.6167,-73.65,283.12,88,100,2.88
1160,Georgetown,MY,2021-07-23 00:00:24,5.4112,100.3354,301.98,81,20,0.45
1161,New Norfolk,AU,2021-07-22 23:55:15,-42.7826,147.0587,285.31,65,65,0.89
1162,Bojnurd,IR,2021-07-23 00:01:58,37.4747,57.329,297.43,24,44,1.7
1163,Beloha,MG,2021-07-22 23:51:23,-25.1667,45.05,291.74,78,4,1.35
1164,Flinders,AU,2021-07-22 23:56:51,-34.5833,150.8552,286.51,65,94,3.13
1165,Carnarvon,AU,2021-07-22 23:54:38,-24.8667,113.6333,287.19,78,6,1.54
1166,Orlik,RU,2021-07-23 00:01:58,52.5178,99.825,288.29,83,86,1.85
1167,Salinas,US,2021-07-22 23:59:30,36.6777,-121.6555,303.47,71,3,4.44
1168,Katsuura,JP,2021-07-22 23:52:04,35.1333,140.3,303.21,71,16,2.19
1169,Banda Aceh,ID,2021-07-22 23:58:32,5.5577,95.3222,300.0,77,100,6.54
1170,Malakal,SS,2021-07-23 00:01:59,9.5334,31.6605,296.11,91,100,1.53
1171,Sao Filipe,CV,2021-07-23 00:01:06,14.8961,-24.4956,296.59,87,22,3.26
1172,Cacador,BR,2021-07-23 00:01:59,-26.7753,-51.015,284.0,73,0,1.41
1173,Jardim,BR,2021-07-23 00:01:59,-21.4803,-56.1381,292.06,17,0,2.66
1174,Lafia,NG,2021-07-23 00:02:00,8.4833,8.5167,295.77,96,91,1.98
1175,Hilo,US,2021-07-22 23:50:20,19.7297,-155.09,303.86,80,75,7.2
1176,Omboue,GA,2021-07-23 00:02:00,-1.5746,9.2618,296.01,74,90,3.61
1177,Chuy,UY,2021-07-22 23:50:26,-33.6971,-53.4616,283.19,77,88,2.76
1178,Vero Beach,US,2021-07-22 23:57:26,27.6386,-80.3973,303.74,78,99,1.34
1179,Qaanaaq,GL,2021-07-22 23:55:18,77.484,-69.3632,280.52,65,32,0.76
1180,Aripuana,BR,2021-07-23 00:02:00,-9.1667,-60.6333,298.72,42,0,1.22
1181,Esperance,AU,2021-07-22 23:54:53,-33.8667,121.9,284.06,65,37,9.56
1182,Hay River,CA,2021-07-23 00:00:14,60.8156,-115.7999,288.13,100,90,2.57
1183,Tuktoyaktuk,CA,2021-07-22 23:55:39,69.4541,-133.0374,284.15,93,90,6.69
1184,Albany,US,2021-07-22 23:53:33,42.6001,-73.9662,296.08,59,99,4.89
1185,Atuona,PF,2021-07-22 23:54:40,-9.8,-139.0333,298.38,73,90,3.85
1186,Huarmey,PE,2021-07-23 00:00:37,-10.0681,-78.1522,291.42,82,10,4.34
1187,Meulaboh,ID,2021-07-22 23:52:51,4.1363,96.1285,297.77,89,98,1.61
1188,Vardo,NO,2021-07-22 23:55:43,70.3705,31.1107,280.44,79,100,13.92
1189,Fortuna,US,2021-07-22 23:57:20,40.5982,-124.1573,305.64,65,20,1.34
1190,Flinders,AU,2021-07-22 23:56:51,-34.5833,150.8552,286.51,65,94,3.13
1191,Vaini,TO,2021-07-22 23:51:36,-21.2,-175.2,300.24,78,20,3.09
1192,Lebu,CL,2021-07-22 23:55:06,-37.6167,-73.65,283.12,88,100,2.88
1193,Auki,SB,2021-07-23 00:02:01,-8.7676,160.7034,302.65,66,50,1.18
1194,Arraial Do Cabo,BR,2021-07-22 23:56:24,-22.9661,-42.0278,290.13,94,20,2.06
1195,Shingu,JP,2021-07-22 23:59:52,33.7333,135.9833,301.7,76,89,3.24
1196,Butaritari,KI,2021-07-22 23:54:32,3.0707,172.7902,301.83,75,48,7.17
1197,Helena,US,2021-07-22 23:58:14,46.5927,-112.0361,306.12,28,60,4.02
1198,Kapaa,US,2021-07-22 23:55:11,22.0752,-159.319,303.14,78,77,1.79
1199,Tukrah,LY,2021-07-23 00:02:02,32.5341,20.5791,298.66,73,0,5.34
1200,Hilo,US,2021-07-22 23:50:20,19.7297,-155.09,303.86,80,75,7.2
1201,Baghdad,IQ,2021-07-22 23:58:14,33.3406,44.4009,302.1,37,0,2.57
1202,Cidreira,BR,2021-07-22 23:55:18,-30.1811,-50.2056,288.05,84,20,6.82
1203,Rawson,AR,2021-07-22 23:56:47,-43.3002,-65.1023,286.12,39,100,4.45
1204,Rikitea,PF,2021-07-22 23:54:48,-23.1203,-134.9692,296.08,73,10,8.25
1205,Hobart,AU,2021-07-22 23:53:42,-42.8794,147.3294,285.5,64,40,1.79
1206,Ushuaia,AR,2021-07-22 23:54:46,-54.8,-68.3,277.96,60,40,1.03
1207,Terre Haute,US,2021-07-23 00:02:03,39.4667,-87.4139,301.76,75,1,1.54
1208,Grimshaw,CA,2021-07-23 00:02:03,56.1834,-117.6027,289.83,57,97,9.21
1209,Lucapa,AO,2021-07-23 00:02:04,-8.4192,20.7447,291.43,28,27,1.86
1210,Piacabucu,BR,2021-07-22 23:56:23,-10.4056,-36.4344,296.35,80,0,4.52
1211,Portland,US,2021-07-23 00:00:11,45.5234,-122.6762,302.35,37,34,0.89
1212,Punta Arenas,CL,2021-07-22 23:55:12,-53.15,-70.9167,276.21,81,40,2.57
1213,Rikitea,PF,2021-07-22 23:54:48,-23.1203,-134.9692,296.08,73,10,8.25
1214,Chokurdakh,RU,2021-07-22 23:54:26,70.6333,147.9167,284.06,50,1,3.9
1215,New Norfolk,AU,2021-07-22 23:55:15,-42.7826,147.0587,285.31,65,65,0.89
1216,Kapaa,US,2021-07-22 23:55:11,22.0752,-159.319,303.14,78,77,1.79
1217,Ushuaia,AR,2021-07-22 23:54:46,-54.8,-68.3,277.96,60,40,1.03
1218,Ban Phai,TH,2021-07-23 00:02:05,16.06,102.731,299.25,93,100,5.57
1219,Chabahar,IR,2021-07-23 00:02:05,25.2919,60.643,304.23,77,0,4.88
1220,Arraial Do Cabo,BR,2021-07-22 23:56:24,-22.9661,-42.0278,290.13,94,20,2.06
1221,Lebu,CL,2021-07-22 23:55:06,-37.6167,-73.65,283.12,88,100,2.88
1222,Kaitangata,NZ,2021-07-22 23:55:44,-46.2817,169.8464,283.11,61,7,2.36
1223,Carnarvon,AU,2021-07-22 23:54:38,-24.8667,113.6333,287.19,78,6,1.54
1224,Mar Del Plata,AR,2021-07-22 23:55:00,-38.0023,-57.5575,287.09,76,0,1.34
1225,Saint-Philippe,RE,2021-07-22 23:55:14,-21.3585,55.7679,291.92,76,43,5.89
1226,Cabo San Lucas,MX,2021-07-22 23:53:32,22.8909,-109.9124,311.21,66,2,4.22
1227,Cape Town,ZA,2021-07-22 23:56:15,-33.9258,18.4232,282.1,82,0,1.34
1228,Kutum,SD,2021-07-22 23:54:05,14.2,24.6667,295.49,68,68,4.72
1229,Musoma,TZ,2021-07-23 00:02:06,-1.5,33.8,292.13,78,0,3.19
1230,Punta Arenas,CL,2021-07-22 23:55:12,-53.15,-70.9167,276.21,81,40,2.57
1231,Bredasdorp,ZA,2021-07-22 23:55:30,-34.5322,20.0403,279.77,87,32,1.54
1232,Tuatapere,NZ,2021-07-22 23:55:15,-46.1333,167.6833,281.38,70,12,2.48
1233,Ous,RU,2021-07-23 00:02:06,60.9058,61.5186,286.13,97,100,6.21
1234,Rikitea,PF,2021-07-22 23:54:48,-23.1203,-134.9692,296.08,73,10,8.25
1235,Rio Gallegos,AR,2021-07-23 00:00:45,-51.6226,-69.2181,276.52,66,20,4.92
1236,Belmonte,BR,2021-07-23 00:02:06,-15.8631,-38.8828,294.95,75,32,4.81
1237,Chuy,UY,2021-07-22 23:50:26,-33.6971,-53.4616,283.19,77,88,2.76
1238,Leningradskiy,RU,2021-07-22 23:55:37,69.3833,178.4167,277.7,82,84,5.05
1239,Sarangani,PH,2021-07-23 00:02:07,5.4033,125.4636,302.08,76,84,7.61
1240,Qaanaaq,GL,2021-07-22 23:55:18,77.484,-69.3632,280.52,65,32,0.76
1241,Punta Arenas,CL,2021-07-22 23:55:12,-53.15,-70.9167,276.21,81,40,2.57
1242,Ahipara,NZ,2021-07-22 23:56:15,-35.1667,173.1667,287.61,72,32,2.93
1243,Mahebourg,MU,2021-07-22 23:51:16,-20.4081,57.7,294.31,73,40,5.14
1244,Ushuaia,AR,2021-07-22 23:54:46,-54.8,-68.3,277.96,60,40,1.03
1245,Itacarambi,BR,2021-07-23 00:02:07,-15.1022,-44.0919,297.81,36,33,2.2
1246,Mount Gambier,AU,2021-07-22 23:52:58,-37.8333,140.7667,280.1,87,90,4.63
1247,Severo-Kurilsk,RU,2021-07-22 23:54:53,50.6789,156.125,286.38,84,61,1.29
1248,Avarua,CK,2021-07-22 23:52:03,-21.2078,-159.775,300.18,74,75,5.66
1249,Klaksvik,FO,2021-07-22 23:57:28,62.2266,-6.589,282.66,91,81,4.44
1250,Barrow,US,2021-07-22 23:51:20,71.2906,-156.7887,277.16,81,90,6.17
1251,Cape Town,ZA,2021-07-22 23:56:15,-33.9258,18.4232,282.1,82,0,1.34
1252,Cape Town,ZA,2021-07-22 23:56:15,-33.9258,18.4232,282.1,82,0,1.34
1253,Iqaluit,CA,2021-07-22 23:56:58,63.7506,-68.5145,283.0,93,90,4.92
1254,Pevek,RU,2021-07-22 23:55:05,69.7008,170.3133,278.4,71,56,2.65
1255,Barrow,US,2021-07-22 23:51:20,71.2906,-156.7887,277.16,81,90,6.17
1256,Nouadhibou,MR,2021-07-22 23:56:57,20.931,-17.0347,293.14,88,0,6.69
1257,Jacareacanga,BR,2021-07-23 00:02:08,-6.2222,-57.7528,299.88,43,39,0.96
1258,Ushuaia,AR,2021-07-22 23:54:46,-54.8,-68.3,277.96,60,40,1.03
1259,Pitimbu,BR,2021-07-23 00:02:08,-7.4706,-34.8086,296.8,84,58,5.92
1260,Victoria,HK,2021-07-22 23:54:58,22.2855,114.1577,303.33,84,97,2.24
1261,Nizwa,OM,2021-07-23 00:02:09,22.9333,57.5333,304.23,52,74,1.67
1262,Busselton,AU,2021-07-22 23:51:29,-33.65,115.3333,285.42,77,100,11.75
1263,Dongkan,CN,2021-07-23 00:02:09,33.9997,119.8308,300.75,78,100,3.92
1264,Albany,US,2021-07-22 23:53:33,42.6001,-73.9662,296.08,59,99,4.89
1265,Punta Arenas,CL,2021-07-22 23:55:12,-53.15,-70.9167,276.21,81,40,2.57
1266,Kapaa,US,2021-07-22 23:55:11,22.0752,-159.319,303.14,78,77,1.79
1267,Klaksvik,FO,2021-07-22 23:57:28,62.2266,-6.589,282.66,91,81,4.44
1268,Karlshamn,SE,2021-07-23 00:02:09,56.1706,14.8619,288.42,85,12,2.7
1269,Goderich,CA,2021-07-23 00:01:57,43.7501,-81.7165,293.26,62,60,1.15
1270,Khilok,RU,2021-07-23 00:02:10,51.3674,110.4676,292.22,74,21,2.27
1271,Waslala,NI,2021-07-23 00:02:10,13.2333,-85.3833,299.46,69,78,3.47
1272,Albany,US,2021-07-22 23:53:33,42.6001,-73.9662,296.08,59,99,4.89
1273,Alot,IN,2021-07-23 00:02:10,23.7667,75.55,297.96,83,100,3.63
1274,Rikitea,PF,2021-07-22 23:54:48,-23.1203,-134.9692,296.08,73,10,8.25
1275,Cherepovets,RU,2021-07-23 00:02:11,59.1333,37.9,285.57,94,100,2.99
1276,Ushuaia,AR,2021-07-22 23:54:46,-54.8,-68.3,277.96,60,40,1.03
1277,Jamestown,US,2021-07-22 23:55:20,42.097,-79.2353,294.95,46,1,3.09
1278,Torit,SS,2021-07-23 00:02:11,4.4133,32.5678,294.51,78,35,0.93
1279,Qaanaaq,GL,2021-07-22 23:55:18,77.484,-69.3632,280.52,65,32,0.76
1280,Ushuaia,AR,2021-07-22 23:54:46,-54.8,-68.3,277.96,60,40,1.03
1281,Kahului,US,2021-07-22 23:50:43,20.8947,-156.47,303.16,63,40,11.83
1282,Cherepovets,RU,2021-07-23 00:02:11,59.1333,37.9,285.57,94,100,2.99
1283,Rikitea,PF,2021-07-22 23:54:48,-23.1203,-134.9692,296.08,73,10,8.25
1284,Puerto Ayacucho,VE,2021-07-23 00:02:12,5.6639,-67.6236,297.42,92,87,1.3
1285,Barcelos,PT,2021-07-23 00:01:24,41.5388,-8.6151,291.64,96,63,0.92
1286,East London,ZA,2021-07-22 23:54:50,-33.0153,27.9116,284.1,70,99,9.46
1287,Rio Gallegos,AR,2021-07-23 00:00:45,-51.6226,-69.2181,276.52,66,20,4.92
1288,Grafenhainichen,DE,2021-07-23 00:02:12,51.7333,12.45,291.74,81,41,0.66
1289,Rikitea,PF,2021-07-22 23:54:48,-23.1203,-134.9692,296.08,73,10,8.25
1290,Quatre Cocos,MU,2021-07-23 00:02:12,-20.2078,57.7625,293.76,69,45,7.64
1291,Arraial Do Cabo,BR,2021-07-22 23:56:24,-22.9661,-42.0278,290.13,94,20,2.06
1292,Vaini,TO,2021-07-22 23:51:36,-21.2,-175.2,300.24,78,20,3.09
1293,Punta Arenas,CL,2021-07-22 23:55:12,-53.15,-70.9167,276.21,81,40,2.57
1294,Conceicao Das Alagoas,BR,2021-07-23 00:02:13,-19.9147,-48.3883,295.28,37,2,2.03
1295,Lompoc,US,2021-07-22 23:54:57,34.6391,-120.4579,301.8,74,75,7.2
1296,Nhulunbuy,AU,2021-07-23 00:01:15,-12.2333,136.7667,299.49,73,20,2.06
1297,Tobermory,CA,2021-07-23 00:01:44,45.2501,-81.6665,293.88,70,77,5.17
1298,Rikitea,PF,2021-07-22 23:54:48,-23.1203,-134.9692,296.08,73,10,8.25
1299,Morro Bay,US,2021-07-23 00:02:13,35.3658,-120.8499,306.03,63,80,2.68
1300,Yellowknife,CA,2021-07-22 23:55:08,62.456,-114.3525,294.44,64,75,3.6
1301,Awjilah,LY,2021-07-23 00:02:13,29.1081,21.2869,299.11,64,0,7.28
1302,Port Alfred,ZA,2021-07-22 23:54:56,-33.5906,26.891,283.98,72,96,8.95
1303,Bukama,CD,2021-07-23 00:02:14,-9.2,25.85,294.24,35,2,1.35
1304,Bengkulu,ID,2021-07-22 23:51:11,-3.8004,102.2655,297.32,84,69,1.52
1305,Borovoy,RU,2021-07-23 00:02:14,55.4333,86.0833,291.75,72,0,3.0
1306,Jamestown,US,2021-07-22 23:55:20,42.097,-79.2353,294.95,46,1,3.09
1307,Jiangyou,CN,2021-07-23 00:02:14,31.7667,104.7167,298.65,84,9,1.41
1308,Saskylakh,RU,2021-07-22 23:55:07,71.9167,114.0833,291.06,70,56,2.9
1309,Garowe,SO,2021-07-22 23:57:28,8.4054,48.4845,298.4,63,93,13.72
1310,Ushuaia,AR,2021-07-22 23:54:46,-54.8,-68.3,277.96,60,40,1.03
1311,Port Elizabeth,ZA,2021-07-22 23:51:23,-33.918,25.5701,283.31,76,75,3.6
1312,Busselton,AU,2021-07-22 23:51:29,-33.65,115.3333,285.42,77,100,11.75
1313,Castro,BR,2021-07-22 23:55:15,-24.7911,-50.0119,282.6,56,0,1.61
1314,Pizarro,CO,2021-07-23 00:02:15,4.9533,-77.366,298.85,89,100,3.09
1315,Hithadhoo,MV,2021-07-22 23:56:09,-0.6,73.0833,299.63,81,100,4.48
1316,Bambous Virieux,MU,2021-07-22 23:56:04,-20.3428,57.7575,294.29,73,40,5.14
1317,Jamestown,US,2021-07-22 23:55:20,42.097,-79.2353,294.95,46,1,3.09
1318,Atuona,PF,2021-07-22 23:54:40,-9.8,-139.0333,298.38,73,90,3.85
1319,Humaita,BR,2021-07-23 00:02:15,-7.5061,-63.0208,300.01,44,4,0.52
1320,Padang,ID,2021-07-22 23:53:49,-0.9492,100.3543,298.2,83,71,2.03
1321,Kruisfontein,ZA,2021-07-22 23:55:21,-34.0033,24.7314,279.75,84,92,2.63
1322,Westport,US,2021-07-23 00:01:38,41.1415,-73.3579,298.76,74,98,0.45
1323,Rio Grande,BR,2021-07-23 00:00:50,-32.035,-52.0986,285.34,80,68,4.34
1324,Puerto Ayora,EC,2021-07-22 23:54:43,-0.7393,-90.3518,295.68,88,96,4.02
1325,East London,ZA,2021-07-22 23:54:50,-33.0153,27.9116,284.1,70,99,9.46
1326,Sorong,ID,2021-07-22 23:57:11,-0.8833,131.25,300.65,81,90,5.22
1327,Sitka,US,2021-07-22 23:55:39,57.0531,-135.33,287.3,83,100,2.0
1328,Rikitea,PF,2021-07-22 23:54:48,-23.1203,-134.9692,296.08,73,10,8.25
1329,North Platte,US,2021-07-23 00:02:00,41.1239,-100.7654,307.6,37,1,1.34
1330,Victoria,HK,2021-07-22 23:54:58,22.2855,114.1577,303.33,84,97,2.24
1331,Nikolskoye,RU,2021-07-22 23:55:17,59.7035,30.7861,290.09,75,97,2.39
1332,Sinnamary,GF,2021-07-23 00:01:18,5.3833,-52.95,299.66,84,30,4.38
1333,Maarianhamina,AX,2021-07-23 00:02:16,60.0973,19.9348,286.07,76,0,2.06
1334,Leningradskiy,RU,2021-07-22 23:55:37,69.3833,178.4167,277.7,82,84,5.05
1335,Waddan,LY,2021-07-23 00:02:16,29.1614,16.139,298.04,60,0,3.82
1336,Shenjiamen,CN,2021-07-23 00:02:17,29.9576,122.298,299.28,85,57,9.39
1337,Beloha,MG,2021-07-22 23:51:23,-25.1667,45.05,291.74,78,4,1.35
1338,Taoudenni,ML,2021-07-22 23:57:08,22.6783,-3.9836,310.91,18,5,3.96
1339,Jamestown,US,2021-07-22 23:55:20,42.097,-79.2353,294.95,46,1,3.09
1340,Qaanaaq,GL,2021-07-22 23:55:18,77.484,-69.3632,280.52,65,32,0.76
1341,Lompoc,US,2021-07-22 23:54:57,34.6391,-120.4579,301.8,74,75,7.2
1342,Victoria,HK,2021-07-22 23:54:58,22.2855,114.1577,303.33,84,97,2.24
1343,Jamestown,US,2021-07-22 23:55:20,42.097,-79.2353,294.95,46,1,3.09
1344,Namwala,ZM,2021-07-23 00:02:17,-15.7504,26.4384,286.47,27,8,1.42
1345,Tuktoyaktuk,CA,2021-07-22 23:55:39,69.4541,-133.0374,284.15,93,90,6.69
1346,Wau,SS,2021-07-23 00:02:17,7.7029,27.9953,294.72,90,99,1.56
1347,Port Alfred,ZA,2021-07-22 23:54:56,-33.5906,26.891,283.98,72,96,8.95
1348,Bredasdorp,ZA,2021-07-22 23:55:30,-34.5322,20.0403,279.77,87,32,1.54
1349,Ushuaia,AR,2021-07-22 23:54:46,-54.8,-68.3,277.96,60,40,1.03
1350,Iqaluit,CA,2021-07-22 23:56:58,63.7506,-68.5145,283.0,93,90,4.92
1351,Amurzet,RU,2021-07-23 00:02:18,47.6967,131.0981,303.46,59,87,1.9
1352,Novopokrovka,UA,2021-07-23 00:02:18,49.8425,36.5477,290.36,60,47,3.72
1353,Barrow,US,2021-07-22 23:51:20,71.2906,-156.7887,277.16,81,90,6.17
1354,Chokurdakh,RU,2021-07-22 23:54:26,70.6333,147.9167,284.06,50,1,3.9
1355,Bandarbeyla,SO,2021-07-23 00:02:18,9.4942,50.8122,299.22,74,49,14.34
